,Unnamed: 0,stop_name,next_stop_name,trip_count,frequency,total_passengers,totalTripTime,distance,OriginLat,OriginLon,DestLat,DestLon,stop_city,next_stop_city,stop_city_distance,next_stop_city_distance,capacity
0,0,Aachen Hbf,Aachen Süd(Gr),12,2600.0,2472,102.0,3.0883503971866166,50.7678,6.091499,50.731915,6.04541,Moenchengladbach,Moenchengladbach,59.05410835537069,64.1321414042632,8112
1,1,Aachen Hbf,Düren,8,884.0,1648,348.0,30.866346398123,50.7678,6.091499,50.809517,6.482451,Moenchengladbach,Moenchengladbach,59.05410835537069,46.834526552827164,5408
2,2,Aachen Hbf,Herzogenrath,2,676.0,412,316.0,15.453692146497769,50.7678,6.091499,50.870914,6.094486,Moenchengladbach,Moenchengladbach,59.05410835537069,49.24102886534925,1352
3,3,Aachen Hbf,Köln Hbf,39,4680.0,8034,107.0,76.61925241299436,50.7678,6.091499,50.94303,6.958729,Moenchengladbach,Cologne,59.05410835537069,15.529488516506833,26364
4,4,Aachen Süd(Gr),Aachen Hbf,39,4680.0,8034,107.0,3.088350397186616,50.731915,6.04541,50.7678,6.091499,Moenchengladbach,Moenchengladbach,64.1321414042632,59.05410835537069,26364
5,5,Aalen Hbf,Ellwangen,11,3068.0,2266,126.0,15.50292858709716,48.84168,10.09613,48.96439,10.129664,Stuttgart,Stuttgart,66.4431541995616,73.3050110060249,7436
6,6,Aalen Hbf,Schwäbisch Gmünd,12,3276.0,2472,175.0,26.020752365756906,48.84168,10.09613,48.80097,9.787504,Stuttgart,Stuttgart,66.4431541995616,43.3874882778067,8112
7,7,Altena(Westf),Letmathe,14,2236.0,2884,99.0,8.71335774521884,51.302013,7.668693,51.362785,7.61801,Dortmund,Dortmund,24.38161437724915,17.306636702530795,9464
8,8,Altena(Westf),Werdohl,11,1872.0,2266,192.0,9.53697506264792,51.301956,7.668576,51.259476,7.757887,Dortmund,Dortmund,24.38656368709184,30.52817570702579,7436
9,9,Altenbeken,Kassel-Wilhelmshöhe,1,104.0,206,301.0,88.24681653799688,51.766296,8.94298,51.312435,9.448181,Paderborn,Kassel,28.231125053594372,12.46701376688958,676
10,10,Altenbeken,Paderborn Hbf,7,780.0,1442,300.0,17.325860779482234,51.766296,8.94298,51.71298,8.740505,Paderborn,Paderborn,28.231125053594372,13.959288776249021,4732
11,11,Altenbeken,Warburg(Westf),8,1716.0,1648,336.0,37.048710509209485,51.766296,8.94298,51.49288,9.164163,Paderborn,Kassel,28.231125053594372,17.50181362876721,5408
12,12,Andernach,Koblenz Hbf,5,468.0,1030,439.0,17.83252446277699,50.434544,7.404839,50.35093,7.588345,Cologne,Cologne,51.44040215393204,65.39529694351178,3380
13,13,Andernach,Remagen,2,468.0,412,448.0,20.54125150722777,50.434544,7.404839,50.577213,7.229779,Cologne,Cologne,51.44040215393204,32.69708120611175,1352
14,14,Angermünde,Eberswalde Hbf,15,1820.0,3090,423.0,25.602792377838647,53.01574,13.995672,52.833805,13.796755,Berlin,Berlin,77.64099437130663,53.808126446441925,10140
15,15,Angermünde,Pasewalk,1,104.0,206,332.0,62.79088322716178,53.015793,13.995908,53.51519,13.988988,Berlin,Laage,77.65293464335602,121.51728244746762,676
16,16,Angermünde,Prenzlau,16,2028.0,3296,567.0,39.53173811507827,53.015793,13.995908,53.32162,13.86654,Berlin,Berlin,77.65293464335602,107.31892233477284,10816
17,17,Anklam,Pasewalk,13,1560.0,2678,423.0,42.86674655607924,53.85625,13.701518,53.515354,13.988875,Laage,Laage,93.83276847327296,121.50340998381992,8788
18,18,Anklam,Züssow,17,2132.0,3502,567.0,16.586847141684455,53.8563,13.701554,53.972515,13.550179,Laage,Laage,93.83466463497749,83.73099414331219,11492
19,19,Ansbach,Crailsheim,12,3276.0,2472,175.0,46.97769554798477,49.29889,10.577582,49.138126,10.064572,Nuernberg,Stuttgart,42.58510087984556,79.36630953637858,8112
20,20,Ansbach Bahnhof,Nürnberg Hbf,11,3068.0,2266,126.0,43.67732192969221,49.299145,10.578166,49.44801,11.082327,Nuernberg,Nuernberg,42.5340613379163,5.646066492798107,7436
21,21,Ansbach Bahnhof,Steinach(bei Rothenburg ob der Tauber),1,364.0,206,449.0,32.33492987285697,49.299046,10.578031,49.453003,10.274113,Nuernberg,Nuernberg,42.548196936646946,58.48447057135335,676
22,22,Ansbach Bahnhof,Treuchtlingen,8,1040.0,1648,420.0,51.48035109260355,49.299004,10.578067,48.96105,10.907919,Nuernberg,Augsburg,42.54841915098586,59.60552135856852,5408
23,23,Ansbach Bahnhof,Würzburg Hbf,7,520.0,1442,485.0,89.3801647687285,49.299046,10.578031,49.80226,9.936041,Nuernberg,Nuernberg,42.548196936646946,89.11206396297732,4732
24,24,Aschaffenburg Hbf,Frankfurt(Main)Hbf,109,13833.0,22454,229.0,45.91930597514256,49.980797,9.14343,50.1062,8.663011,Egelsbach,Frankfurt,35.77230336803378,10.46436894574695,73684
25,25,Aschaffenburg Hbf,Frankfurt(Main)Süd,2,0.0,412,306.0,41.506192614582645,49.980797,9.14343,50.099205,8.685283,Egelsbach,Frankfurt,35.77230336803378,11.00709961554811,1352
26,26,Aschaffenburg Hbf,Fulda,1,208.0,206,559.0,100.79531371331112,49.980556,9.143697,50.555016,9.683904,Egelsbach,Kassel,35.78978414585571,98.19397942348768,676
27,27,Aschaffenburg Hbf,Hanau Hbf,21,1769.0,4326,244.0,23.117841122763107,49.980797,9.14343,50.121346,8.928415,Egelsbach,Egelsbach,35.77230336803378,27.052742364364295,14196
28,28,Aschaffenburg Hbf,Würzburg Hbf,134,17577.0,27604,255.0,78.1747444871136,49.98065,9.14343,49.802,9.935924,Egelsbach,Nuernberg,35.771303992242345,89.10913531834964,90584
29,29,Augsburg Hbf,Ansbach Bahnhof,2,312.0,412,365.0,127.56535009781228,48.365673,10.885892,49.299046,10.578031,Augsburg,Nuernberg,7.444492216015933,42.548196936646946,1352
30,30,Augsburg Hbf,Donauwörth,25,3848.0,5150,284.0,41.55209544583551,48.365673,10.885892,48.71413,10.771654,Augsburg,Augsburg,7.444492216015933,34.22268857266561,16900
31,31,Augsburg Hbf,Günzburg,49,7126.0,10094,199.0,61.01632193101428,48.365673,10.885892,48.460575,10.279224,Augsburg,Augsburg,7.444492216015933,48.42972398438987,33124
32,32,Augsburg Hbf,München Hbf,31,3796.0,6386,420.0,61.72233237076584,48.3656,10.885713,48.13994,11.557491,Augsburg,Munich,7.457760588517425,29.219425114517012,20956
33,33,Augsburg Hbf,München Ost,3,104.0,618,409.0,66.68662722419582,48.3656,10.885713,48.127304,11.605533,Augsburg,Munich,7.457760588517425,28.534019293335078,2028
34,34,Augsburg Hbf,Nürnberg Hbf,3,156.0,618,462.0,137.95002615020806,48.3656,10.885713,49.44541,11.082291,Augsburg,Nuernberg,7.457760588517425,5.934685460023867,2028
35,35,Augsburg Hbf,Pasing,173,22620.0,35638,309.0,54.24459311874946,48.3656,10.885713,48.149197,11.459296,Augsburg,Munich,7.457760588517425,33.26555913024474,116948
36,36,Augsburg Hbf,Ulm Hbf,141,16221.0,29046,488.0,85.17346877241476,48.365673,10.885892,48.399345,9.982933,Augsburg,Memmingen,7.444492216015933,49.47491011525626,95316
37,37,Augsburg Hbf,Würzburg Hbf,1,52.0,206,412.0,216.1839308313235,48.365532,10.885533,49.802,9.935924,Augsburg,Nuernberg,7.470577091116582,89.10913531834964,676
38,38,Augustfehn,Leer(Ostfriesl),58,8735.0,11948,304.0,23.11485665504408,53.220943,7.759614,53.231438,7.46537,Bremen,Bremen,71.39754582457122,90.75937099846033,39208
39,39,Augustfehn,Westerstede-Ocholt,49,8892.0,10094,333.0,8.323085860722019,53.220844,7.75963,53.202248,7.886519,Bremen,Bremen,71.393613230978,62.67123314556054,33124
40,40,Bad Bentheim,Bad Bentheim(Gr),22,6760.0,4532,224.0,8.275775953749875,52.309853,7.157776,52.3091,7.04016,Munster,Munster,40.95753528884899,48.1442759639477,14872
41,41,Bad Bentheim,Rheine,48,8479.0,9888,213.0,21.551672066073245,52.30978,7.157785,52.275837,7.434987,Munster,Munster,40.95315358813181,23.210036192654442,32448
42,42,Bad Bentheim(Gr),Bad Bentheim,48,8479.0,9888,213.0,8.275775953749871,52.3091,7.04016,52.30978,7.157785,Munster,Munster,48.1442759639477,40.95315358813181,32448
43,43,Bad Bevensen,Lüneburg,9,884.0,1854,260.0,22.30626642352568,53.078274,10.574201,53.249535,10.419739,Hamburg,Hamburg,72.78830082858605,51.17622879674875,6084
44,44,Bad Bevensen,Uelzen,5,780.0,1030,159.0,12.788862321087624,53.07822,10.574081,52.969658,10.553415,Hamburg,Braunschweig,72.78910496341105,72.38301964413512,3380
45,45,Bad Endorf,Prien Prien Bahnhof,6,1040.0,1236,305.0,10.032223641790694,47.90459,12.302679,47.85454,12.346697,Munich,Munich,63.03611267390612,69.46119632869647,4056
46,46,"Bad Endorf, Bahnhof",Rosenheim,2,728.0,412,449.0,17.25950175173233,47.904682,12.302545,47.850994,12.118372,Munich,Munich,63.02190157253335,61.140268069521134,1352
47,47,Bad Hersfeld,Eisenach Hbf,31,4888.0,6386,288.0,55.17765812449147,50.869633,9.716182,50.975952,10.331229,Kassel,Erfurt,65.18549200855233,44.027784173465875,20956
48,48,Bad Hersfeld,Fulda,30,4839.0,6180,297.0,42.44413853398312,50.869633,9.716182,50.555016,9.683904,Kassel,Kassel,65.18549200855233,98.19397942348768,20280
49,49,Bad Kleinen,Bützow,20,1976.0,4120,235.0,40.79687836147904,53.766644,11.466456,53.83715,11.998132,Luebeck,Laage,49.44114001579506,20.515900832229633,13520
50,50,Bad Kleinen,Schwerin Hbf,10,1975.0,2060,368.0,16.278969153006987,53.766945,11.466213,53.635628,11.407445,Luebeck,Luebeck,49.422096731847525,49.20635145585542,6760
51,51,Bad Nauheim,Frankfurt(Main)Hbf,1,0.0,206,91.0,38.86895322592013,50.367695,8.749241,50.10662,8.662561,Frankfurt,Frankfurt,39.319248010147916,10.480298780027107,676
52,52,Bad Nauheim,Frankfurt(Main)West,10,1768.0,2060,192.0,35.526282408536254,50.367695,8.749241,50.11939,8.638952,Frankfurt,Frankfurt,39.319248010147916,10.751580518049558,6760
53,53,Bad Nauheim,Wetzlar,12,2080.0,2472,226.0,36.80720534525148,50.367695,8.749241,50.56566,8.504213,Frankfurt,Frankfurt,39.319248010147916,59.40166639689912,8112
54,54,Bad Oeynhausen,Bielefeld Hbf,87,10035.0,17922,407.0,30.41702821223481,52.205322,8.795944,52.02962,8.532917,Paderborn,Paderborn,66.93376741959337,46.58851285839952,58812
55,55,Bad Oeynhausen,Herford,4,52.0,824,107.0,16.749317036235663,52.205322,8.795944,52.119453,8.663415,Paderborn,Paderborn,66.93376741959337,56.321351677404344,2704
56,56,Bad Oeynhausen,Minden(Westf),68,8372.0,14008,388.0,14.420084936882114,52.205257,8.795962,52.290154,8.934859,Paderborn,Hannover,66.92688964050946,54.517208876329505,45968
57,57,Bad Schandau,Dresden Hbf,16,2496.0,3296,128.0,40.43877109517942,50.919315,14.137713,51.040684,13.731863,Dresden,Dresden,35.210455586132156,10.542879892850921,10816
58,58,Bad Zwischenahn,Oldenburg(Oldb)Hbf,49,8892.0,10094,333.0,15.434266195519744,53.182713,8.002593,53.14432,8.222713,Bremen,Bremen,54.614192892615435,39.28492545129348,33124
59,59,Bad Zwischenahn,Westerstede-Ocholt,58,8735.0,11948,304.0,7.760410870885606,53.182713,8.002593,53.202248,7.886519,Bremen,Bremen,54.614192892615435,62.67123314556054,39208
60,60,Baden-Baden,Freiburg(Breisgau) Hbf,20,2964.0,4120,351.0,102.58766463500552,48.790478,8.190417,47.997765,7.841295,Karlsruhe/Baden-Baden,Karlsruhe/Baden-Baden,8.17082674260151,88.70319720320732,13520
61,61,Baden-Baden,Karlsruhe Hbf,116,14924.0,23896,365.0,28.98046130497089,48.79032,8.190731,48.993675,8.401116,Karlsruhe/Baden-Baden,Karlsruhe/Baden-Baden,8.191027585134789,33.47676397706569,78416
62,62,Baden-Baden,Offenburg,112,13778.0,23072,488.0,39.91969555163772,48.790478,8.190417,48.476475,7.946723,Karlsruhe/Baden-Baden,Karlsruhe/Baden-Baden,8.17082674260151,35.099757324828836,75712
63,63,"Bahnhof, Engen",Singen(Hohentwiel),20,3690.0,4120,98.0,14.310965577573628,47.85621,8.772516,47.75892,8.841381,Friedrichshafen,Friedrichshafen,59.08923305995754,51.21670859157267,13520
64,64,"Bahnhof, Friedberg (Hessen)",Frankfurt(Main)Hbf,15,1404.0,3090,468.0,33.59683719547543,50.33204,8.760561,50.10652,8.662645,Frankfurt,Frankfurt,35.89052500293792,10.47543742279689,10140
65,65,"Bahnhof, Friedberg (Hessen)",Frankfurt(Main)West,5,572.0,1030,181.0,30.25376384949328,50.33204,8.760561,50.11939,8.638952,Frankfurt,Frankfurt,35.89052500293792,10.751580518049558,3380
66,66,"Bahnhof, Friedberg (Hessen)",Gießen,20,2184.0,4120,262.0,32.91707710273548,50.33204,8.760561,50.579884,8.663799,Frankfurt,Frankfurt,35.89052500293792,61.15737088796258,13520
67,67,Bamberg,Coburg,4,780.0,824,326.0,44.97602680676421,49.900574,10.900122,50.263447,10.957201,Nuernberg,Erfurt,46.50449308613626,79.68799433269767,2704
68,68,Bamberg,Erlangen,36,5976.0,7416,366.0,38.69971322416879,49.900597,10.899735,49.596157,11.001488,Nuernberg,Nuernberg,46.51466452626568,12.17344893681363,24336
69,69,Bamberg,Hauptbahnhof,38,5668.0,7828,286.0,128.3188863494855,49.900574,10.900122,50.97211,11.037261,Nuernberg,Erfurt,46.50449308613626,5.6252208209058105,25688
70,70,Bamberg,Lichtenfels Bahnhof,14,2495.0,2884,426.0,32.02448385238354,49.900574,10.900122,50.146103,11.06039,Nuernberg,Nuernberg,46.50449308613626,72.01914233963902,9464
71,71,Bamberg,Nürnberg Hbf,25,2912.0,5150,463.0,62.31758868375399,49.900597,10.899735,49.445545,11.082228,Nuernberg,Nuernberg,46.51466452626568,5.919456104692248,16900
72,72,Bebra,Eisenach Hbf,2,416.0,412,301.0,45.0279614122691,50.969566,9.797788,50.975952,10.331229,Kassel,Erfurt,57.56429546976768,44.027784173465875,1352
73,73,Bebra,Kassel-Wilhelmshöhe,5,364.0,1030,158.0,54.13146110836984,50.969566,9.797788,51.312435,9.448181,Kassel,Kassel,57.56429546976768,12.46701376688958,3380
74,74,Bensheim,Darmstadt Hbf,22,3744.0,4532,355.0,22.6952234767326,49.68174,8.616901,49.87304,8.629164,Mannheim,Egelsbach,24.370144557466034,9.746035119922867,14872
75,75,Bensheim,Heidelberg Hbf,1,52.0,206,508.0,37.86022032697166,49.681423,8.616721,49.40357,8.675442,Mannheim,Mannheim,24.332603964795986,14.0193556618086,676
76,76,Bensheim,Mannheim Hbf,6,308.0,1236,493.0,37.85870426878033,49.681423,8.616721,49.47923,8.470026,Mannheim,Mannheim,24.332603964795986,3.271819819938229,4056
77,77,Bensheim,Weinheim(Bergstr)Hbf,37,4680.0,7622,100.0,14.838959958629273,49.681423,8.616721,49.55361,8.665401,Mannheim,Mannheim,24.332603964795986,14.14951972310662,25012
78,78,Bergen auf Rügen,Ostseebad Binz,21,2809.0,4326,283.0,22.99857372708285,54.42034,13.417668,54.405552,13.599532,Laage,Laage,93.06254702402205,101.9340179841123,14196
79,79,Bergen auf Rügen,Stralsund Hbf,22,2808.0,4532,468.0,29.351335148654588,54.420414,13.417534,54.308075,13.078294,Laage,Laage,93.06044449669642,67.97237850834692,14872
80,80,Berlin Gesundbrunnen,Berlin Hbf,86,12014.0,17716,238.0,12.01793482570385,52.54869,13.390501,52.524998,13.369061,Berlin,Berlin,20.804741585803725,19.21300376935236,58136
81,81,Berlin Gesundbrunnen,Berlin Ostkreuz,4,0.0,824,252.0,12.118371700972348,52.548573,13.390519,52.503128,13.469622,Berlin,Berlin,20.79247284924179,14.165020998467638,2704
82,82,Berlin Gesundbrunnen,Berlin-Lichtenberg,12,3536.0,2472,65.0,10.240294800180592,52.548573,13.390519,52.510277,13.497433,Berlin,Berlin,20.79247284924179,14.596419520789448,8112
83,83,Berlin Gesundbrunnen,Berlin-Spandau,7,1560.0,1442,219.0,21.45053235142262,52.548573,13.390519,52.5346,13.197163,Berlin,Berlin,20.79247284924179,28.018284060572785,4732
84,84,Berlin Gesundbrunnen,Bernau(b Berlin),13,1612.0,2678,197.0,20.49774167342605,52.548386,13.390704,52.67533,13.592016,Berlin,Berlin,20.768283926896277,33.20034890877735,8788
85,85,Berlin Gesundbrunnen,Eberswalde Hbf,4,520.0,824,567.0,43.04893612107019,52.548573,13.390519,52.83376,13.796866,Berlin,Berlin,20.79247284924179,53.80602713843686,2704
86,86,Berlin Gesundbrunnen,Schwerin Hbf,3,0.0,618,265.0,216.23446773788856,52.54869,13.390501,53.63563,11.407544,Berlin,Luebeck,20.804741585803725,49.21229930833745,2028
87,87,Berlin Hbf,Berlin Gesundbrunnen,70,10654.0,14420,426.0,12.017934825703849,52.52519,13.369752,52.548386,13.390704,Berlin,Berlin,19.20549662832253,20.768283926896277,47320
88,88,Berlin Hbf,Berlin Ostbahnhof,258,42223.0,53148,286.0,16.8955470738039,52.524788,13.369667,52.510254,13.435024,Berlin,Berlin,19.17103807284873,15.666963115820067,174408
89,89,Berlin Hbf,Berlin Südkreuz,296,39767.0,60976,238.0,8.635850139898729,52.524998,13.369061,52.475925,13.365291,Berlin,Berlin,19.21300376935236,15.109124089373218,200096
90,90,Berlin Hbf,Berlin Zoologischer Garten,76,8527.0,15656,488.0,15.212205745665775,52.52511,13.369472,52.50768,13.332686,Berlin,Berlin,19.208316586131517,19.194752095996083,51376
91,91,Berlin Hbf,Berlin-Charlottenburg,2,260.0,412,197.0,12.920031790925442,52.524967,13.369527,52.504173,13.301819,Berlin,Berlin,19.19292470896404,20.398613491246508,1352
92,92,Berlin Hbf,Berlin-Spandau,384,60526.0,79104,336.0,12.865009409666456,52.525143,13.369612,52.534668,13.197191,Berlin,Berlin,19.20624919968874,28.021415236228307,259584
93,93,Berlin Hbf,Berlin-Wannsee,4,728.0,824,329.0,22.577680678465697,52.524967,13.369527,52.421402,13.180358,Berlin,Berlin,19.19292470896404,23.738546530134585,2704
94,94,Berlin Hbf,Hamburg Hbf,1,0.0,206,224.0,285.80933712847184,52.52519,13.369752,53.55252,10.007353,Berlin,Hamburg,19.20549662832253,8.760021822370117,676
95,95,Berlin Hbf,Schwerin Hbf,5,1248.0,1030,262.0,207.6489447961324,52.52519,13.369752,53.63563,11.407544,Berlin,Luebeck,19.20549662832253,49.21229930833745,3380
96,96,Berlin Ostbahnhof,Berlin Hbf,327,50437.0,67362,488.0,16.8955470738039,52.510414,13.435172,52.52511,13.369472,Berlin,Berlin,15.679618159312804,19.208316586131517,221052
97,97,Berlin Ostbahnhof,Berlin Ostkreuz,5,1300.0,1030,378.0,3.6122181565580425,52.510178,13.434942,52.502907,13.468553,Berlin,Berlin,15.66126015267244,14.159896147043781,3380
98,98,Berlin Ostbahnhof,Dresden-Neustadt,7,0.0,1442,328.0,184.98514825420511,52.510242,13.434586,51.066097,13.740235,Berlin,Dresden,15.677059672985294,7.657456843232695,4732
99,99,Berlin Ostbahnhof,Frankfurt(Oder),9,3224.0,1854,54.0,80.78327589908324,52.510242,13.434586,52.336563,14.545988,Berlin,Berlin,15.677059672985294,69.89532041141662,6084
100,100,Berlin Ostkreuz,Berlin Gesundbrunnen,4,0.0,824,265.0,12.118371700972345,52.503067,13.469961,52.54869,13.390501,Berlin,Berlin,14.152619387627125,20.804741585803725,2704
101,101,Berlin Ostkreuz,Berlin Hbf,2,260.0,412,197.0,13.28332891724586,52.50304,13.468615,52.524967,13.369527,Berlin,Berlin,14.173099212651165,19.19292470896404,1352
102,102,Berlin Ostkreuz,Berlin Ostbahnhof,6,1404.0,1236,59.0,3.612218156558042,52.50304,13.468615,52.510414,13.435172,Berlin,Berlin,14.173099212651165,15.679618159312804,4056
103,103,Berlin Ostkreuz,Berlin-Lichtenberg,3,0.0,618,166.0,3.35122381000706,52.503067,13.469961,52.510002,13.49649,Berlin,Berlin,14.152619387627125,14.573670690434527,2028
104,104,Berlin Ostkreuz,Flughafen BER,7,0.0,1442,101.0,26.084396820545813,52.503128,13.469622,52.364323,13.509145,Berlin,Berlin,14.165020998467638,1.9674366714456921,4732
105,105,Berlin Ostkreuz,Frankfurt(Oder),1,312.0,206,55.0,81.30681974823115,52.502907,13.468553,52.336563,14.545988,Berlin,Berlin,14.159896147043781,69.89532041141662,676
106,106,Berlin Ostkreuz,S Königs Wusterhausen Bhf,4,988.0,824,378.0,27.31260608245007,52.502907,13.468553,52.296642,13.631479,Berlin,Berlin,14.159896147043781,11.883257441580565,2704
107,107,Berlin Südkreuz,Berlin Hbf,224,34055.0,46144,336.0,8.417619772718078,52.475407,13.365754,52.525143,13.369612,Berlin,Berlin,15.046168888349468,19.20624919968874,151424
108,108,Berlin Südkreuz,Bitterfeld,33,3585.0,6798,463.0,129.94587345692145,52.475925,13.365291,51.62286,12.31685,Berlin,Leipzig,15.109124089373218,22.830672912466124,22308
109,109,Berlin Südkreuz,Chemnitz Hbf,1,104.0,206,165.0,208.33967566493385,52.475887,13.365455,50.839695,12.930877,Berlin,Dresden,15.098245556571078,67.17016394522275,676
110,110,Berlin Südkreuz,Doberlug-Kirchhain,1,0.0,206,108.0,113.59751505318714,52.475433,13.365603,51.62053,13.564161,Berlin,Dresden,15.055487410676475,56.073824657469466,676
111,111,Berlin Südkreuz,Dresden-Neustadt,15,3483.0,3090,258.0,186.39743244676225,52.475925,13.365291,51.066097,13.740235,Berlin,Dresden,15.109124089373218,7.657456843232695,10140
112,112,Berlin Südkreuz,Flughafen BER,11,3224.0,2266,108.0,28.952257307207173,52.475925,13.365291,52.36424,13.509191,Berlin,Berlin,15.109124089373218,1.9741907659719502,7436
113,113,Berlin Südkreuz,Halle(Saale)Hbf,81,10448.0,16686,238.0,159.59570002344324,52.475925,13.365291,51.47751,11.987085,Berlin,Leipzig,15.109124089373218,18.328514070702045,54756
114,114,Berlin Südkreuz,Leipzig Hbf,1,208.0,206,288.0,164.23355543556443,52.475685,13.365454,51.34547,12.382064,Berlin,Leipzig,15.082434607346643,13.37769855424209,676
115,115,Berlin Südkreuz,Lutherstadt Wittenberg Hbf,102,11539.0,21012,290.0,92.70385697126764,52.475685,13.365454,51.86781,12.662285,Berlin,Leipzig,15.082434607346643,57.519585048651564,68952
116,116,Berlin Südkreuz,Nürnberg Hbf,11,1404.0,2266,225.0,442.1825537400922,52.475685,13.365454,49.44541,11.082291,Berlin,Nuernberg,15.082434607346643,5.934685460023867,7436
117,117,Berlin Südkreuz,Schönefeld(bei Berlin),1,0.0,206,231.0,20.83106587536704,52.475433,13.365603,52.39115,13.512816,Berlin,Berlin,15.055487410676475,1.404931396927286,676
118,118,Berlin Zoologischer Garten,Berlin Hbf,100,9104.0,20600,286.0,15.21220574566578,52.50762,13.332927,52.524788,13.369667,Berlin,Berlin,19.178798735902355,19.17103807284873,67600
119,119,Berlin Zoologischer Garten,Berlin-Charlottenburg,2,520.0,412,59.0,2.292173954740335,52.50768,13.332686,52.504173,13.301819,Berlin,Berlin,19.194752095996083,20.398613491246508,1352
120,120,Berlin Zoologischer Garten,Berlin-Spandau,48,5408.0,9888,488.0,11.780238985741413,52.50768,13.332686,52.5346,13.197163,Berlin,Berlin,19.194752095996083,28.018284060572785,32448
121,121,Berlin Zoologischer Garten,Berlin-Wannsee,23,2287.0,4738,534.0,14.997575030622412,52.507717,13.332555,52.421402,13.180358,Berlin,Berlin,19.203785851199957,23.738546530134585,15548
122,122,Berlin Zoologischer Garten,Braunschweig Hbf,1,104.0,206,429.0,212.25739445504064,52.507717,13.332555,52.25227,10.54085,Berlin,Braunschweig,19.203785851199957,7.519732211849685,676
123,123,Berlin Zoologischer Garten,Stendal Hbf,2,208.0,412,293.0,103.71421120548624,52.50768,13.332686,52.594723,11.854412,Berlin,Braunschweig,19.194752095996083,93.4269027317266,1352
124,124,Berlin-Lichtenberg,Berlin Gesundbrunnen,16,3848.0,3296,75.0,10.174606590949482,52.510002,13.49649,52.548573,13.390519,Berlin,Berlin,14.573670690434527,20.79247284924179,10816
125,125,Berlin-Lichtenberg,Berlin Ostkreuz,3,0.0,618,101.0,3.35122381000706,52.510124,13.496304,52.503128,13.469622,Berlin,Berlin,14.588684677015424,14.165020998467638,2028
126,126,Berlin-Lichtenberg,Frankfurt(Oder),12,3536.0,2472,65.0,79.49243290232371,52.510277,13.497433,52.336563,14.545988,Berlin,Berlin,14.596419520789448,69.89532041141662,8112
127,127,Berlin-Spandau,Berlin Gesundbrunnen,11,1716.0,2266,213.0,21.450532351422616,52.534542,13.197124,52.548573,13.390519,Berlin,Berlin,28.01642605986845,20.79247284924179,7436
128,128,Berlin-Spandau,Berlin Hbf,325,53388.0,66950,259.0,12.865009409666458,52.534485,13.1971,52.52511,13.369472,Berlin,Berlin,28.01383266385196,19.208316586131517,219700
129,129,Berlin-Spandau,Berlin Zoologischer Garten,65,6813.0,13390,286.0,11.780238985741407,52.534485,13.1971,52.507652,13.332804,Berlin,Berlin,28.01383266385196,19.18705387973307,43940
130,130,Berlin-Spandau,Frankfurt(Main)Hbf,3,728.0,618,247.0,524.1757375041868,52.5346,13.197163,50.1063,8.662814,Berlin,Frankfurt,28.018284060572785,10.464074305834187,2028
131,131,Berlin-Spandau,Frankfurt(Main)Süd,4,624.0,824,318.0,519.7630717368703,52.5346,13.197163,50.099003,8.686179,Berlin,Frankfurt,28.018284060572785,11.040189525637325,2704
132,132,Berlin-Spandau,Hamburg Hbf,49,7748.0,10094,336.0,275.23638001500063,52.534668,13.197191,53.55252,10.007353,Berlin,Hamburg,28.021415236228307,8.760021822370117,33124
133,133,Berlin-Spandau,Hamburg-Bergedorf,2,0.0,412,377.0,259.39006018370776,52.534668,13.197191,53.48963,10.205985,Berlin,Hamburg,28.021415236228307,21.299796094816962,1352
134,134,Berlin-Spandau,Hannover Hbf,24,4368.0,4944,224.0,244.38752147943924,52.5346,13.197163,52.377613,9.741834,Berlin,Hannover,28.018284060572785,10.060681304636773,16224
135,135,Berlin-Spandau,Hannover Messe/Laatzen,1,364.0,206,393.0,245.9574048872024,52.5346,13.197163,52.316975,9.792607,Berlin,Hannover,28.018284060572785,17.629426814060658,676
136,136,Berlin-Spandau,Ludwigslust,6,780.0,1236,132.0,160.34532722095776,52.534668,13.197191,53.334885,11.49398,Berlin,Luebeck,28.021415236228307,73.32680823035828,4056
137,137,Berlin-Spandau,Salzwedel,2,0.0,412,413.0,151.18202121858823,52.534668,13.197191,52.858112,11.162035,Berlin,Braunschweig,28.021415236228307,72.68213832890723,1352
138,138,Berlin-Spandau,Stendal Hbf,78,10712.0,16068,488.0,94.2984926962484,52.5346,13.197163,52.594723,11.854412,Berlin,Braunschweig,28.018284060572785,93.4269027317266,52728
139,139,Berlin-Spandau,Wittenberge,33,4212.0,6798,377.0,117.15553932714576,52.534668,13.197191,53.004498,11.762504,Berlin,Laage,28.021415236228307,107.30551944283582,22308
140,140,Berlin-Spandau,Wolfsburg Hbf,220,33538.0,45320,371.0,169.5671455114713,52.5346,13.197163,52.429665,10.787913,Berlin,Braunschweig,28.018284060572785,20.008300732358187,148720
141,141,Berlin-Spandau,Wunstorf,18,4680.0,3708,231.0,265.62429765192405,52.5346,13.197163,52.42213,9.450977,Berlin,Hannover,28.018284060572785,16.49910995293009,12168
142,142,Berlin-Wannsee,Berlin Gesundbrunnen,2,260.0,412,264.0,24.99692625663201,52.42135,13.180446,52.548573,13.390519,Berlin,Berlin,23.73156178703518,20.79247284924179,1352
143,143,Berlin-Wannsee,Berlin Hbf,6,1144.0,1236,349.0,22.577680678465697,52.42135,13.180446,52.52488,13.369627,Berlin,Berlin,23.73156178703518,19.181109856356418,4056
144,144,Berlin-Wannsee,Berlin Zoologischer Garten,30,1979.0,6180,378.0,14.99757503062241,52.42135,13.180446,52.507652,13.332804,Berlin,Berlin,23.73156178703518,19.18705387973307,20280
145,145,Berlin-Wannsee,Potsdam Hbf,27,3015.0,5562,534.0,9.580766179785234,52.421402,13.180358,52.391666,13.066749,Berlin,Berlin,23.738546530134585,31.05735033917236,18252
146,146,Bernau(b Berlin),Berlin Gesundbrunnen,8,728.0,1648,207.0,20.49774167342604,52.675426,13.591859,52.548885,13.39039,Berlin,Berlin,33.20941073204986,20.8275643574852,5408
147,147,Bernau(b Berlin),Eberswalde Hbf,13,1612.0,2678,197.0,23.317435517186063,52.67533,13.592016,52.83376,13.796866,Berlin,Berlin,33.20034890877735,53.80602713843686,8788
148,148,Biberach(Riß),Ravensburg,3,676.0,618,426.0,47.3121557776707,48.101936,9.792939,47.78441,9.605964,Memmingen,Friedrichshafen,35.59266927258608,14.435716985317224,2028
149,149,Biberach(Riß),Ulm Hbf,2,520.0,412,439.0,37.32619619462959,48.101994,9.793155,48.399345,9.982816,Memmingen,Memmingen,35.579867636832994,49.47826424853365,1352
150,150,Bielefeld Hbf,Bad Oeynhausen,1,0.0,206,273.0,30.417028212234808,52.029522,8.533106,52.205257,8.795962,Paderborn,Paderborn,46.5760856907672,66.92688964050946,676
151,151,Bielefeld Hbf,Dortmund Hbf,42,7488.0,8652,256.0,98.34963080494964,52.02962,8.532917,51.517883,7.458721,Paderborn,Dortmund,46.58851285839952,10.656304836398364,28392
152,152,Bielefeld Hbf,Gütersloh Hbf,131,14039.0,26986,298.0,17.779144717628583,52.02962,8.532917,51.90686,8.38483,Paderborn,Paderborn,46.58851285839952,36.28306705976287,88556
153,153,Bielefeld Hbf,Hamm(Westf)Hbf,15,1716.0,3090,268.0,67.70854973540479,52.02962,8.532917,51.678474,7.807276,Paderborn,Dortmund,46.58851285839952,22.365646050861127,10140
154,154,Bielefeld Hbf,Hannover Hbf,69,13260.0,14214,259.0,108.7997899741074,52.029522,8.533106,52.37734,9.741547,Paderborn,Hannover,46.5760856907672,10.081287114936238,46644
155,155,Bielefeld Hbf,Herford,69,9672.0,14214,233.0,13.667711175999152,52.029522,8.533106,52.119358,8.663667,Paderborn,Paderborn,46.5760856907672,56.31180143079485,46644
156,156,Bielefeld Hbf,Minden(Westf),36,4579.0,7416,513.0,44.832693405272096,52.029522,8.533106,52.290154,8.934859,Paderborn,Hannover,46.5760856907672,54.517208876329505,24336
157,157,Bingen(Rhein) Hbf,Koblenz Hbf,2,104.0,412,422.0,60.69144599097663,49.969147,7.882717,50.35093,7.588345,Frankfurt,Cologne,49.827796713202396,65.39529694351178,1352
158,158,Bingen(Rhein) Hbf,Mainz Hbf,21,1352.0,4326,495.0,31.559804317282904,49.969147,7.882717,50.001118,8.25872,Frankfurt,Frankfurt,49.827796713202396,22.63473828791361,14196
159,159,Bitterfeld,Berlin Südkreuz,27,4265.0,5562,284.0,129.7276430897408,51.62286,12.31685,52.475407,13.365754,Leipzig,Berlin,22.830672912466124,15.046168888349468,18252
160,160,Bitterfeld,Berlin Zoologischer Garten,2,104.0,412,286.0,139.53573172340606,51.62286,12.31685,52.50762,13.332927,Leipzig,Berlin,22.830672912466124,19.178798735902355,1352
161,161,Bitterfeld,Dessau Hbf,10,468.0,2060,372.0,25.88425798838484,51.62286,12.31685,51.839867,12.234945,Leipzig,Leipzig,22.830672912466124,46.281964674135736,6760
162,162,Bitterfeld,Halle(Saale)Hbf,33,3585.0,6798,463.0,29.65231906565077,51.62286,12.31685,51.47751,11.987085,Leipzig,Leipzig,22.830672912466124,18.328514070702045,22308
163,163,Bitterfeld,Hauptbahnhof,1,52.0,206,637.0,121.64478692832056,51.62286,12.31685,50.97211,11.037261,Leipzig,Erfurt,22.830672912466124,5.6252208209058105,676
164,164,Bitterfeld,Leipzig Hbf,21,2024.0,4326,388.0,34.294199789060066,51.62286,12.31685,51.34547,12.382064,Leipzig,Leipzig,22.830672912466124,13.37769855424209,14196
165,165,Bitterfeld,Lutherstadt Wittenberg Hbf,10,1247.0,2060,426.0,38.1787902842579,51.62286,12.31685,51.86781,12.662285,Leipzig,Leipzig,22.830672912466124,57.519585048651564,6760
166,166,Bochum Hbf,Dortmund Hbf,254,36189.0,52324,348.0,18.79385412870331,51.478394,7.222859,51.517723,7.458775,Dortmund,Dortmund,27.401815475445837,10.65266746827015,171704
167,167,Bochum Hbf,Essen Hbf,283,41133.0,58298,309.0,15.681075773250006,51.47853,7.222715,51.45159,7.013956,Dortmund,Duesseldorf,27.409196812828334,24.929328838450363,191308
168,168,Bondorf(b Herrenberg),Ergenzingen,2,52.0,412,94.0,5.974955577880717,48.52328,8.827735,48.489243,8.809751,Stuttgart,Stuttgart,34.474882464638476,37.71728767285998,1352
169,169,Bondorf(b Herrenberg),Eutingen im Gäu,1,312.0,206,119.0,7.204615666489185,48.52328,8.827735,48.479736,8.782361,Stuttgart,Stuttgart,34.474882464638476,39.975702306539574,676
170,170,Bondorf(b Herrenberg),Gäufelden,20,3327.0,4120,118.0,8.002143640473012,48.52329,8.827852,48.559704,8.850157,Stuttgart,Stuttgart,34.467006400374366,30.99803808173585,13520
171,171,Bondorf(b Herrenberg),Horb,21,3742.0,4326,98.0,16.858885398466516,48.52328,8.827735,48.441597,8.688775,Stuttgart,Stuttgart,34.474882464638476,48.07256502136603,14196
172,172,Bonn Hbf,Koblenz Hbf,18,1352.0,3708,585.0,59.040278698176,50.731834,7.097284,50.35093,7.588345,Cologne,Cologne,15.254306967516394,65.39529694351178,12168
173,173,Bonn Hbf,Köln Hbf,17,1456.0,3502,612.0,33.23060469229649,50.731956,7.097364,50.9433,6.958485,Cologne,Cologne,15.239852658523219,15.560366945279487,11492
174,174,Bonn Hbf,Remagen,5,468.0,1030,439.0,20.669768506090467,50.731834,7.097284,50.577213,7.229779,Cologne,Cologne,15.254306967516394,32.69708120611175,3380
175,175,Bonn-Beuel,Koblenz Hbf,50,6448.0,10300,407.0,60.005833791902255,50.738205,7.127862,50.35093,7.588345,Cologne,Cologne,14.243823224647945,65.39529694351178,33800
176,176,Bonn-Beuel,Köln Hbf,7,728.0,1442,246.0,48.38545290512119,50.737896,7.12815,50.94303,6.958729,Cologne,Cologne,14.276627528540136,15.529488516506833,4732
177,177,Bonn-Beuel,Köln Messe/Deutz Gl.11-12,38,6552.0,7828,233.0,30.40036501467555,50.737896,7.12815,50.9416,6.973954,Cologne,Cologne,14.276627528540136,14.556356007378396,25688
178,178,Bonn-Beuel,Mainz Hbf,27,3172.0,5562,351.0,151.5815829989208,50.738205,7.127862,50.001118,8.25872,Cologne,Frankfurt,14.243823224647945,22.63473828791361,18252
179,179,Bonn-Beuel,Solingen Hbf,2,0.0,412,277.0,53.4057445707918,50.737896,7.12815,51.161083,7.004119,Cologne,Duesseldorf,14.276627528540136,21.88615107528071,1352
180,180,Boppard Hbf,Koblenz Hbf,4,572.0,824,511.0,19.70535189863492,50.231415,7.586102,50.35093,7.588345,Frankfurt,Cologne,73.75438922658165,65.39529694351178,2704
181,181,Brandenburg Hbf,Braunschweig Hbf,2,104.0,412,461.0,164.32146945295938,52.400276,12.565075,52.25227,10.54085,Berlin,Braunschweig,65.21945861549806,7.519732211849685,1352
182,182,Brandenburg Hbf,Magdeburg Hbf,21,2183.0,4326,534.0,81.3696954032589,52.400276,12.565075,52.130512,11.626963,Berlin,Braunschweig,65.21945861549806,76.12730923908816,14196
183,183,Brandenburg Hbf,Potsdam Hbf,33,3071.0,6798,349.0,35.0519709153609,52.40021,12.565134,52.391422,13.066721,Berlin,Berlin,65.21523936087513,31.05821771652369,22308
184,184,Braunschweig Hbf,Brandenburg Hbf,3,104.0,618,455.0,164.58896642130836,52.25223,10.540921,52.40021,12.565134,Braunschweig,Berlin,7.523471777145977,65.21523936087513,2028
185,185,Braunschweig Hbf,Hannover Hbf,91,7747.0,18746,372.0,61.61638315919157,52.25227,10.54085,52.377613,9.741834,Braunschweig,Hannover,7.519732211849685,10.060681304636773,61516
186,186,Braunschweig Hbf,Hannover-Linden/Fischerhof,26,4628.0,5356,304.0,64.03721142629193,52.25227,10.54085,52.352795,9.722646,Braunschweig,Hannover,7.519732211849685,12.319988493993073,17576
187,187,Braunschweig Hbf,Helmstedt,54,8788.0,11124,333.0,36.08132021685108,52.25223,10.540921,52.22181,11.010192,Braunschweig,Braunschweig,7.523471777145977,32.83739286475625,36504
188,188,Braunschweig Hbf,Hildesheim Hbf,83,13050.0,17098,371.0,42.83072302450309,52.25227,10.54085,52.160275,9.952633,Braunschweig,Hannover,7.519732211849685,38.124446467339645,56108
189,189,Braunschweig Hbf,Magdeburg Hbf,56,4995.0,11536,470.0,83.42178014369932,52.25223,10.540921,52.130512,11.626963,Braunschweig,Braunschweig,7.523471777145977,76.12730923908816,37856
190,190,Braunschweig Hbf,Peine,3,780.0,618,239.0,26.032005761353933,52.25227,10.54085,52.31896,10.232197,Braunschweig,Braunschweig,7.519732211849685,22.08650747040244,2028
191,191,Braunschweig Hbf,Potsdam Hbf,1,260.0,206,409.0,198.81671657859144,52.25223,10.540921,52.391422,13.066721,Braunschweig,Berlin,7.523471777145977,31.05821771652369,676
192,192,Braunschweig Hbf,Stendal Hbf,2,208.0,412,254.0,108.54472562175296,52.25223,10.540921,52.594723,11.854412,Braunschweig,Braunschweig,7.523471777145977,93.4269027317266,1352
193,193,Braunschweig Hbf,Wolfsburg Hbf,76,13365.0,15656,259.0,33.76755446079908,52.25223,10.540921,52.429382,10.787698,Braunschweig,Braunschweig,7.523471777145977,19.977447248649227,51376
194,194,Bremen Hbf,Delmenhorst,77,10815.0,15862,304.0,13.203442034300815,53.083073,8.813611,53.05279,8.629758,Bremen,Bremen,4.351270064892261,10.538858749361557,52052
195,195,Bremen Hbf,Diepholz,14,1716.0,2884,518.0,69.73943331354822,53.0835,8.81418,52.604637,8.38013,Bremen,Bremen,4.410356804053067,56.38935616522527,9464
196,196,Bremen Hbf,Hamburg-Harburg,101,13208.0,20806,488.0,103.4704224441274,53.083565,8.81426,53.45627,9.992209,Bremen,Hamburg,4.419170012483646,19.382029194094915,68276
197,197,Bremen Hbf,Hamm(Westf)Hbf,1,0.0,206,271.0,207.17698050611725,53.08342,8.814067,51.678078,7.807821,Bremen,Dortmund,4.3991038590744145,22.353465248430975,676
198,198,Bremen Hbf,Hannover Hbf,46,4993.0,9476,231.0,121.91341434276195,53.083275,8.813879,52.377087,9.741169,Bremen,Hannover,4.379183005039923,10.097578196505216,31096
199,199,Bremen Hbf,Minden(Westf),3,208.0,618,307.0,119.8303157109017,53.08342,8.814067,52.29061,8.934859,Bremen,Hannover,4.3991038590744145,54.49927923259166,2028
200,200,Bremen Hbf,Münster(Westf)Hbf,8,988.0,1648,537.0,171.38789269257623,53.083565,8.81426,51.95697,7.635815,Bremen,Munster,4.419170012483646,20.048790082419607,5408
201,201,Bremen Hbf,Oldenburg(Oldb)Hbf,2,679.0,412,231.0,44.57152886127356,53.083073,8.813611,53.14432,8.222713,Bremen,Bremen,4.351270064892261,39.28492545129348,1352
202,202,Bremen Hbf,Osnabrück Hbf,124,13365.0,25544,627.0,121.57603317547344,53.0835,8.81418,52.272747,8.061333,Bremen,Munster,4.410356804053067,29.980460844888125,83824
203,203,Bremen Hbf,Recklinghausen Hbf,1,104.0,206,283.0,228.3659034568829,53.083565,8.81426,51.61667,7.203509,Bremen,Dortmund,4.419170012483646,30.380400532126387,676
204,204,Bremen Hbf,Verden(Aller),57,9360.0,11742,333.0,35.562301628425715,53.082947,8.813447,52.920876,9.237633,Bremen,Bremen,4.333952676310363,33.40505690062783,38532
205,205,Bremen Hbf,Wunstorf,2,52.0,412,254.0,101.21754355017912,53.083073,8.813611,52.422344,9.451112,Bremen,Hannover,4.351270064892261,16.483969426423947,1352
206,206,Bruchsal,Karlsruhe Hbf,12,2653.0,2472,156.0,22.226401336711355,49.125088,8.590113,48.99332,8.401422,Mannheim,Karlsruhe/Baden-Baden,39.091777200410874,33.464511697066165,8112
207,207,Bruchsal,Karlsruhe-Durlach,3,676.0,618,105.0,16.959571568790118,49.125088,8.590113,49.002155,8.462328,Mannheim,Karlsruhe/Baden-Baden,39.091777200410874,37.38522059184841,2028
208,208,Bruchsal,Stuttgart Hbf,12,2704.0,2472,151.0,65.39736680901777,49.125088,8.590113,48.784748,9.183217,Mannheim,Stuttgart,39.091777200410874,10.925799202652843,8112
209,209,Bruchsal,Wiesloch-Walldorf,2,260.0,412,330.0,19.671251865289808,49.125088,8.590113,49.291042,8.664242,Mannheim,Mannheim,39.091777200410874,22.989804771191427,1352
210,210,Buchloe,"Memmingen, Bahnhof ZOB",18,2857.0,3708,118.0,46.14390148239785,48.033585,10.716273,47.984997,10.186392,Memmingen,Memmingen,35.918452839625175,3.9866994222864656,12168
211,211,Buchloe,München Hbf,22,3380.0,4532,109.0,68.46663976324298,48.03355,10.716389,48.1405,11.55759,Memmingen,Munich,35.92649663757833,29.16443737039849,14872
212,212,Böblingen,Herrenberg,24,4106.0,4944,98.0,16.34292461348912,48.688004,9.00438,48.594112,8.862716,Stuttgart,Stuttgart,16.021007405672478,28.53688272775611,16224
213,213,Böblingen,Horb,9,2391.0,1854,141.0,41.24909233439261,48.688004,9.00438,48.441597,8.688775,Stuttgart,Stuttgart,16.021007405672478,48.07256502136603,6084
214,214,Böblingen,Stuttgart Hbf,22,5355.0,4532,118.0,22.31989819079115,48.687847,9.004641,48.784748,9.183217,Stuttgart,Stuttgart,16.002056977923388,10.925799202652843,14872
215,215,Böblingen,Stuttgart-Vaihingen,1,260.0,206,114.0,10.29684863957971,48.687847,9.004641,48.72628,9.113226,Stuttgart,Stuttgart,16.002056977923388,8.967158615035196,676
216,216,Büchen,Hamburg Hbf,16,1820.0,3296,377.0,46.91314182294342,53.474976,10.623292,53.55252,10.007353,Luebeck,Hamburg,37.31877487408249,8.760021822370117,10816
217,217,Büchen,Hamburg-Bergedorf,7,1248.0,1442,262.0,31.066821991650627,53.474976,10.623292,53.48963,10.205985,Luebeck,Hamburg,37.31877487408249,21.299796094816962,4732
218,218,Büchen,Ludwigslust,39,4675.0,8034,258.0,68.44476572386662,53.474976,10.623292,53.334885,11.49398,Luebeck,Luebeck,37.31877487408249,73.32680823035828,26364
219,219,Bünde(Westf),Hannover Hbf,14,3123.0,2884,219.0,94.4664128239251,52.202274,8.574509,52.37734,9.741547,Munster,Hannover,61.335351017697256,10.081287114936238,9464
220,220,Bünde(Westf),Osnabrück Hbf,28,7436.0,5768,224.0,38.83240547697589,52.20239,8.574419,52.273598,8.059918,Munster,Munster,61.33074741454486,29.94603354274134,18928
221,221,Bünde(Westf),Wunstorf,35,5720.0,7210,213.0,74.40887395688604,52.202274,8.574509,52.422108,9.450672,Munster,Hannover,61.335351017697256,16.519768312930914,23660
222,222,Bützow,Bad Kleinen,10,1975.0,2060,368.0,40.77592670954138,53.83704,11.997872,53.766945,11.466213,Laage,Luebeck,20.53666417341254,49.422096731847525,6760
223,223,Bützow,Rostock Hbf,33,3641.0,6798,235.0,30.57166361675732,53.83715,11.998132,54.078262,12.131398,Laage,Laage,20.515900832229633,20.253391285177297,22308
224,224,Bützow,Schwerin Hbf,29,2340.0,5974,468.0,57.028920817057006,53.83704,11.997872,53.635628,11.407445,Laage,Luebeck,20.53666417341254,49.20635145585542,19604
225,225,Celle,Hannover Hbf,59,5772.0,12154,424.0,41.046983459460016,52.620457,10.062468,52.377087,9.741169,Hannover,Hannover,31.14564232503025,10.097578196505216,39884
226,226,Celle,Langenhagen Mitte,2,260.0,412,159.0,31.053826709870368,52.620457,10.062468,52.440178,9.725413,Hannover,Hannover,31.14564232503025,3.597238575477306,1352
227,227,Celle,Lüneburg,3,312.0,618,230.0,87.05710192134062,52.620457,10.062468,53.249535,10.419739,Hannover,Hamburg,31.14564232503025,51.17622879674875,2028
228,228,Celle,Uelzen,83,7651.0,17098,354.0,52.141702990718926,52.620457,10.062468,52.969612,10.553516,Hannover,Braunschweig,31.14564232503025,72.3778836760835,56108
229,229,Celle,Wolfsburg Hbf,2,260.0,412,220.0,86.81606821745657,52.620457,10.062468,52.429382,10.787698,Hannover,Braunschweig,31.14564232503025,19.977447248649227,1352
230,230,Chemnitz Hbf,Berlin Südkreuz,1,104.0,206,142.0,208.12144529775333,50.839695,12.930877,52.475433,13.365603,Dresden,Berlin,67.17016394522275,15.055487410676475,676
231,231,Chemnitz Hbf,Freiberg(Sachs),6,1040.0,1236,308.0,41.30677231372108,50.83933,12.931177,50.908634,13.344572,Dresden,Dresden,67.17167469050727,38.74646286810935,4056
232,232,Coburg,Bamberg,8,1141.0,1648,274.0,44.94029245805447,50.26347,10.957452,49.900597,10.899735,Erfurt,Nuernberg,79.6854237425546,46.51466452626568,5408
233,233,Coburg,Hauptbahnhof,13,1872.0,2678,326.0,87.40317125441172,50.263447,10.957201,50.97211,11.037261,Erfurt,Erfurt,79.68799433269767,5.6252208209058105,8788
234,234,Coburg,Nürnberg Hbf,6,1092.0,1236,420.0,107.2532280622368,50.26347,10.957452,49.44541,11.082291,Erfurt,Nuernberg,79.6854237425546,5.934685460023867,4056
235,235,Cottbus Hbf,Lübbenau(Spreewald),4,884.0,824,423.0,29.86640686292215,51.75054,14.323346,51.862095,13.961176,Dresden,Berlin,78.8583040254935,64.98940888523286,2704
236,236,Crailsheim,Ansbach Bahnhof,11,3068.0,2266,126.0,47.332311605435606,49.13812,10.064814,49.299145,10.578166,Stuttgart,Nuernberg,79.37969700488945,42.5340613379163,7436
237,237,Crailsheim,Ellwangen,12,3276.0,2472,175.0,21.377499327639704,49.138126,10.064572,48.96439,10.129664,Stuttgart,Stuttgart,79.36630953637858,73.3050110060249,8112
238,238,Darmstadt Hbf,Bensheim,44,5040.0,9064,100.0,22.69522347673259,49.87304,8.629164,49.681423,8.616721,Egelsbach,Mannheim,9.746035119922867,24.332603964795986,29744
239,239,Darmstadt Hbf,Frankfurt(Main)Hbf,28,4524.0,5768,355.0,28.08436149097609,49.87304,8.629164,50.10587,8.663474,Egelsbach,Frankfurt,9.746035119922867,10.457033982092392,18928
240,240,Darmstadt Hbf,Frankfurt(Main)Süd,2,468.0,412,393.0,26.51007542692956,49.87304,8.629164,50.099003,8.686179,Egelsbach,Frankfurt,9.746035119922867,11.040189525637325,1352
241,241,Darmstadt Hbf,Heidelberg Hbf,2,104.0,412,324.0,60.1831315293317,49.87304,8.629164,49.403625,8.674905,Egelsbach,Mannheim,9.746035119922867,13.983492634563598,1352
242,242,Darmstadt Hbf,Mannheim Hbf,2,728.0,412,393.0,60.55116967529509,49.87304,8.629164,49.47901,8.469757,Egelsbach,Mannheim,9.746035119922867,3.2858727989776653,1352
243,243,Darmstadt Hbf,Stuttgart Hbf,1,52.0,206,92.0,151.60423121634474,49.87304,8.629164,48.784748,9.183217,Egelsbach,Stuttgart,9.746035119922867,10.925799202652843,676
244,244,Darmstadt Hbf,Weinheim(Bergstr)Hbf,2,364.0,412,87.0,37.53097469725724,49.87304,8.629164,49.55361,8.665401,Egelsbach,Mannheim,9.746035119922867,14.14951972310662,1352
245,245,Delmenhorst,Bremen Hbf,66,10296.0,13596,333.0,13.203442034300814,53.05279,8.629758,53.082947,8.813447,Bremen,Bremen,10.538858749361557,4.333952676310363,44616
246,246,Delmenhorst,Hude,55,8631.0,11330,304.0,14.39670497327006,53.05279,8.629758,53.10929,8.460912,Bremen,Bremen,10.538858749361557,22.888188485131383,37180
247,247,Delmenhorst,Oldenburg(Oldb)Hbf,22,2184.0,4532,372.0,31.37047142741068,53.05279,8.629758,53.14432,8.222713,Bremen,Bremen,10.538858749361557,39.28492545129348,14872
248,248,Dessau Hbf,Bitterfeld,8,676.0,1648,388.0,25.88425798838483,51.839867,12.234945,51.62286,12.31685,Leipzig,Leipzig,46.281964674135736,22.830672912466124,5408
249,249,Dessau Hbf,Halle(Saale)Hbf,3,468.0,618,302.0,55.5340845549066,51.839867,12.234945,51.47751,11.987085,Leipzig,Leipzig,46.281964674135736,18.328514070702045,2028
250,250,Dessau Hbf,Magdeburg Hbf,14,988.0,2884,372.0,61.173333647721336,51.839867,12.234945,52.130512,11.626963,Leipzig,Braunschweig,46.281964674135736,76.12730923908816,9464
251,251,Diepholz,Bremen Hbf,23,2236.0,4738,267.0,69.73943331354823,52.6046,8.380267,53.083565,8.81426,Bremen,Bremen,56.388473506727536,4.419170012483646,15548
252,252,Diepholz,Osnabrück Hbf,14,1716.0,2884,518.0,52.30812258464172,52.604637,8.38013,52.272747,8.061333,Bremen,Munster,56.38935616522527,29.980460844888125,9464
253,253,Dillenburg,Siegen Hbf,12,2080.0,2472,226.0,32.18495233338032,50.734905,8.294586,50.876408,8.017311,Frankfurt,Cologne,80.47064670644963,61.5734901642337,8112
254,254,Dillenburg,Wetzlar,11,1768.0,2266,192.0,28.778720502344605,50.734905,8.294586,50.56566,8.504213,Frankfurt,Frankfurt,80.47064670644963,59.40166639689912,7436
255,255,Doberlug-Kirchhain,Elsterwerda,19,3224.0,3914,101.0,21.08500205520348,51.62053,13.564161,51.459404,13.516305,Dresden,Dresden,56.073824657469466,40.33036066751808,12844
256,256,Doberlug-Kirchhain,Flughafen BER,16,2808.0,3296,262.0,101.5569548246251,51.620533,13.564268,52.36416,13.509246,Dresden,Berlin,56.07226976204503,1.9803932628780954,10816
257,257,Donauwörth,Augsburg Hbf,31,4212.0,6386,463.0,41.55209544583551,48.71402,10.771564,48.3656,10.885713,Augsburg,Augsburg,34.2135053434198,7.457760588517425,20956
258,258,Donauwörth,Nürnberg Hbf,9,1456.0,1854,411.0,96.4000930140341,48.71413,10.771654,49.44541,11.082291,Augsburg,Nuernberg,34.22268857266561,5.934685460023867,6084
259,259,Donauwörth,Treuchtlingen,16,2392.0,3296,284.0,34.48742926404389,48.71413,10.771654,48.961014,10.908198,Augsburg,Augsburg,34.22268857266561,59.60092061824534,10816
260,260,Dortmund Hbf,Bochum Hbf,283,41133.0,58298,309.0,18.793854128703305,51.51796,7.458703,51.47853,7.222715,Dortmund,Dortmund,10.657511502871603,27.409196812828334,191308
261,261,Dortmund Hbf,Düsseldorf Hbf,1,52.0,206,252.0,69.05687089754659,51.517723,7.458775,51.219963,6.794319,Dortmund,Duesseldorf,10.65266746827015,7.9716335285263815,676
262,262,Dortmund Hbf,Essen Hbf,21,104.0,4326,459.0,33.730505305693335,51.517883,7.458721,51.45159,7.013956,Dortmund,Duesseldorf,10.656304836398364,24.929328838450363,14196
263,263,Dortmund Hbf,Gelsenkirchen Hbf,5,0.0,1030,275.0,30.55034994228528,51.517883,7.458721,51.5049,7.102455,Dortmund,Duesseldorf,10.656304836398364,33.46735606951771,3380
264,264,Dortmund Hbf,Hagen Hbf,143,18147.0,29458,381.0,23.635490775464607,51.517883,7.458721,51.36264,7.46049,Dortmund,Dortmund,10.656304836398364,20.27922353427604,96668
265,265,Dortmund Hbf,Hamm(Westf)Hbf,167,24858.0,34402,233.0,31.177480100294737,51.517723,7.458775,51.678474,7.807276,Dortmund,Dortmund,10.65266746827015,22.365646050861127,112892
266,266,Dortmund Hbf,Hannover Hbf,1,0.0,206,223.0,206.8070052785547,51.517723,7.458775,52.37746,9.74169,Dortmund,Hannover,10.65266746827015,10.072657056024884,676
267,267,Dortmund Hbf,Köln Hbf,7,0.0,1442,633.0,112.36502696777126,51.517883,7.458721,50.943333,6.958566,Dortmund,Cologne,10.656304836398364,15.557650115243058,4732
268,268,Dortmund Hbf,Köln Messe/Deutz Gl.11-12,1,208.0,206,337.0,94.38171681955764,51.517883,7.458721,50.941566,6.973855,Dortmund,Cologne,10.656304836398364,14.559853088672835,676
269,269,Dortmund Hbf,Münster(Westf)Hbf,85,11909.0,17510,488.0,55.934580545186186,51.517723,7.458775,51.95694,7.636075,Dortmund,Munster,10.65266746827015,20.04909717998054,57460
270,270,Dortmund Hbf,Osnabrück Hbf,1,0.0,206,496.0,105.7488304749874,51.517723,7.458775,52.272697,8.061522,Dortmund,Munster,10.65266746827015,29.988716331349988,676
271,271,Dortmund Hbf,Recklinghausen Hbf,2,104.0,412,388.0,31.171339052231925,51.51821,7.45864,51.61667,7.203509,Dortmund,Dortmund,10.661793161289195,30.380400532126387,1352
272,272,Dortmund Hbf,Solingen Hbf,6,312.0,1236,363.0,67.72215575262588,51.517883,7.458721,51.161087,7.003985,Dortmund,Duesseldorf,10.656304836398364,21.878769520816395,4056
273,273,Dortmund Hbf,Wanne-Eickel Hbf,3,728.0,618,269.0,25.880868964855893,51.518063,7.458685,51.531357,7.166247,Dortmund,Dortmund,10.658714504583596,30.987169415257746,2028
274,274,Dortmund Hbf,Witten Hbf,11,1872.0,2266,192.0,15.389561422551813,51.517883,7.458721,51.435375,7.329327,Dortmund,Dortmund,10.656304836398364,21.713087675215625,7436
275,275,Dresden Hbf,Bad Schandau,18,3171.0,3708,258.0,40.59575218717996,51.039875,13.731396,50.91921,14.137704,Dresden,Dresden,10.63805825006899,35.2178911811749,12168
276,276,Dresden Hbf,Dresden-Neustadt,123,16435.0,25338,372.0,4.165854367055582,51.040684,13.731863,51.065994,13.740424,Dresden,Dresden,10.542879892850921,7.665312310644672,83148
277,277,Dresden Hbf,Freiberg(Sachs),4,728.0,824,314.0,41.227620105824194,51.039875,13.731396,50.908737,13.344644,Dresden,Dresden,10.63805825006899,38.73519680875462,2704
278,278,Dresden-Neustadt,Berlin Ostbahnhof,7,0.0,1442,281.0,184.98514825420503,51.065994,13.740424,52.510414,13.435172,Dresden,Berlin,7.665312310644672,15.679618159312804,4732
279,279,Dresden-Neustadt,Berlin Ostkreuz,2,260.0,412,197.0,182.63270816483367,51.065994,13.740424,52.50304,13.468615,Dresden,Berlin,7.665312310644672,14.173099212651165,1352
280,280,Dresden-Neustadt,Berlin Südkreuz,11,2860.0,2266,128.0,186.1792020795816,51.065994,13.740424,52.475407,13.365754,Dresden,Berlin,7.665312310644672,15.046168888349468,7436
281,281,Dresden-Neustadt,Dresden Hbf,114,16951.0,23484,101.0,4.195208076512471,51.066097,13.740235,51.039875,13.731396,Dresden,Dresden,7.657456843232695,10.63805825006899,77064
282,282,Dresden-Neustadt,Elsterwerda,18,3016.0,3708,262.0,53.1752670988805,51.06591,13.740541,51.46012,13.51666,Dresden,Dresden,7.672375059115484,40.39136775036334,12168
283,283,Dresden-Neustadt,Freiberg(Sachs),2,520.0,412,167.0,43.476324934986266,51.066097,13.740235,50.908737,13.344644,Dresden,Dresden,7.657456843232695,38.73519680875462,1352
284,284,Dresden-Neustadt,Riesa,87,10611.0,17922,372.0,49.81665142035568,51.065994,13.740424,51.30983,13.288293,Dresden,Dresden,7.665312310644672,38.82420493192801,58812
285,285,Duisburg Hbf,Bochum Hbf,1,0.0,206,499.0,34.88553251997297,51.429836,6.777088,51.478394,7.222859,Duesseldorf,Dortmund,15.629492347742099,27.401815475445837,676
286,286,Duisburg Hbf,Dortmund Hbf,1,0.0,206,314.0,52.93496205241628,51.429836,6.777088,51.5176,7.458793,Duesseldorf,Dortmund,15.629492347742099,10.651523539516221,676
287,287,Duisburg Hbf,Düsseldorf Flughafen,99,16016.0,20394,298.0,15.670681398414487,51.43,6.775696,51.29135,6.786853,Duesseldorf,Duesseldorf,15.643570114047156,1.415292365346216,66924
288,288,Duisburg Hbf,Düsseldorf Hbf,341,45086.0,70246,459.0,23.755544073639594,51.43,6.775696,51.219543,6.794776,Duesseldorf,Duesseldorf,15.643570114047156,8.024701182108972,230516
289,289,Duisburg Hbf,Essen Hbf,335,47167.0,69010,229.0,19.204456746722965,51.429836,6.777088,51.45151,7.013974,Duesseldorf,Duesseldorf,15.629492347742099,24.92376723350873,226460
290,290,Duisburg Hbf,Gelsenkirchen Hbf,6,364.0,1236,349.0,25.84740669508537,51.429836,6.777088,51.504982,7.103087,Duesseldorf,Duesseldorf,15.629492347742099,33.50458690152383,4056
291,291,Duisburg Hbf,Krefeld Hbf,2,312.0,412,316.0,20.289918033737127,51.42997,6.775902,51.325718,6.569885,Duesseldorf,Moenchengladbach,15.640811372007166,11.558283126968215,1352
292,292,Duisburg Hbf,Köln Hbf,10,676.0,2060,296.0,79.1552904502006,51.43,6.775696,50.943436,6.958808,Duesseldorf,Cologne,15.643570114047156,15.549819450192132,6760
293,293,Duisburg Hbf,Mülheim(Ruhr)Hbf,5,1145.0,1030,485.0,8.485959388144641,51.42987,6.776801,51.43114,6.886665,Duesseldorf,Duesseldorf,15.632365715389222,17.833790058511628,3380
294,294,Duisburg Hbf,Oberhausen Hbf,33,6448.0,6798,302.0,7.824774138107799,51.429867,6.776882,51.474876,6.851588,Duesseldorf,Duesseldorf,15.632285217743675,21.452503732277346,22308
295,295,Düren,Aachen Hbf,4,1040.0,824,283.0,30.866346398123,50.809517,6.482451,50.7678,6.091499,Moenchengladbach,Moenchengladbach,46.834526552827164,59.05410835537069,2704
296,296,Düren,Köln Hbf,8,884.0,1648,348.0,45.75642726737577,50.809517,6.482451,50.94303,6.958729,Moenchengladbach,Cologne,46.834526552827164,15.529488516506833,5408
297,297,Düsseldorf Flughafen,Duisburg Hbf,85,13107.0,17510,252.0,15.669864446792406,51.291367,6.787158,51.429836,6.777088,Duesseldorf,Duesseldorf,1.4366179351852084,15.629492347742099,57460
298,298,Düsseldorf Flughafen,Düsseldorf Hbf,98,15808.0,20188,298.0,8.099557696853115,51.29135,6.786853,51.219612,6.794632,Duesseldorf,Duesseldorf,1.415292365346216,8.014810943900395,66248
299,299,Düsseldorf Hbf,Dortmund Hbf,4,312.0,824,529.0,69.05687089754653,51.219963,6.794319,51.517723,7.458775,Duesseldorf,Dortmund,7.9716335285263815,10.65266746827015,2704
300,300,Düsseldorf Hbf,Duisburg Hbf,296,41653.0,60976,229.0,23.755544073639587,51.219505,6.794866,51.429836,6.777088,Duesseldorf,Duesseldorf,8.030333576978997,15.629492347742099,200096
301,301,Düsseldorf Hbf,Düsseldorf Flughafen,85,13107.0,17510,252.0,8.100423854393032,51.219505,6.794866,51.291367,6.787158,Duesseldorf,Duesseldorf,8.030333576978997,1.4366179351852084,57460
302,302,Düsseldorf Hbf,Koblenz Hbf,1,104.0,206,434.0,123.9601303549976,51.219612,6.794632,50.35093,7.588345,Duesseldorf,Cologne,8.014810943900395,65.39529694351178,676
303,303,Düsseldorf Hbf,Köln Hbf,196,24233.0,40376,627.0,56.808392097707056,51.219543,6.794776,50.943333,6.958566,Duesseldorf,Cologne,8.024701182108972,15.557650115243058,132496
304,304,Düsseldorf Hbf,Köln Messe/Deutz,2,260.0,412,353.0,38.82453880678026,51.219543,6.794776,50.94096,6.975957,Duesseldorf,Cologne,8.024701182108972,14.400327130686895,1352
305,305,Düsseldorf Hbf,Köln Messe/Deutz Gl.11-12,203,26989.0,41818,459.0,38.82508194949343,51.219543,6.794776,50.941566,6.973855,Duesseldorf,Cologne,8.024701182108972,14.559853088672835,137228
306,306,Düsseldorf Hbf,Mainz Hbf,1,156.0,206,482.0,205.30011156124715,51.219612,6.794632,50.001118,8.25872,Duesseldorf,Frankfurt,8.014810943900395,22.63473828791361,676
307,307,Düsseldorf Hbf,Neuss Hbf,7,988.0,1442,346.0,10.838726149647016,51.220093,6.793644,51.205223,6.684885,Duesseldorf,Duesseldorf,7.94634422977693,10.982292196256518,4732
308,308,Eberswalde Hbf,Angermünde,17,2132.0,3502,567.0,25.602792377838657,52.83376,13.796866,53.015793,13.995908,Berlin,Berlin,53.80602713843686,77.65293464335602,11492
309,309,Eberswalde Hbf,Berlin Gesundbrunnen,7,1092.0,1442,423.0,43.04893612107019,52.833805,13.796755,52.548794,13.3904,Berlin,Berlin,53.808126446441925,20.818138734331683,4732
310,310,Eberswalde Hbf,Bernau(b Berlin),8,728.0,1648,207.0,23.31743551718608,52.833805,13.796755,52.675426,13.591859,Berlin,Berlin,53.808126446441925,33.20941073204986,5408
311,311,Eisenach Hbf,Bad Hersfeld,30,4839.0,6180,297.0,55.17765812449148,50.975952,10.331229,50.869633,9.716182,Erfurt,Kassel,44.027784173465875,65.18549200855233,20280
312,312,Eisenach Hbf,Bebra,5,364.0,1030,158.0,45.0279614122691,50.975952,10.331229,50.969566,9.797788,Erfurt,Kassel,44.027784173465875,57.56429546976768,3380
313,313,Eisenach Hbf,Frankfurt(Main)Hbf,8,829.0,1648,657.0,200.9665469737353,50.975952,10.331229,50.1062,8.663011,Erfurt,Frankfurt,44.027784173465875,10.46436894574695,5408
314,314,Eisenach Hbf,Fulda,42,4523.0,8652,454.0,97.62054070790208,50.975952,10.331229,50.555016,9.683904,Erfurt,Kassel,44.027784173465875,98.19397942348768,28392
315,315,Eisenach Hbf,Gotha,48,7645.0,9888,241.0,29.08427083252444,50.975952,10.331229,50.93907,10.712568,Erfurt,Erfurt,44.027784173465875,17.835994649870564,32448
316,316,Eisenach Hbf,Hauptbahnhof,24,3224.0,4944,315.0,56.8521809338377,50.975952,10.331229,50.97211,11.037261,Erfurt,Erfurt,44.027784173465875,5.6252208209058105,16224
317,317,Eisenach Hbf,Kassel-Wilhelmshöhe,3,728.0,618,344.0,99.1586752421838,50.975952,10.331229,51.312435,9.448181,Erfurt,Kassel,44.027784173465875,12.46701376688958,2028
318,318,Ellwangen,Aalen Hbf,12,3276.0,2472,175.0,15.502928587097164,48.96439,10.129664,48.84168,10.09613,Stuttgart,Stuttgart,73.3050110060249,66.4431541995616,8112
319,319,Ellwangen,Crailsheim,11,3068.0,2266,126.0,22.0738083502002,48.96439,10.129664,49.13812,10.064814,Stuttgart,Stuttgart,73.3050110060249,79.37969700488945,7436
320,320,Elsterwerda,Doberlug-Kirchhain,16,2808.0,3296,262.0,21.085002055203493,51.46012,13.51666,51.620533,13.564268,Dresden,Dresden,40.39136775036334,56.07226976204503,10816
321,321,Elsterwerda,Dresden-Neustadt,25,3432.0,5150,101.0,53.17526709888052,51.459404,13.516305,51.066097,13.740235,Dresden,Dresden,40.33036066751808,7.657456843232695,16900
322,322,Elsterwerda,Riesa,2,208.0,412,84.0,23.54402054545938,51.45942,13.516226,51.30983,13.288293,Dresden,Dresden,40.33435429731938,38.82420493192801,1352
323,323,Emden Außenhafen,Emden Hbf,8,1300.0,1648,378.0,3.119462954323038,53.344498,7.186394,53.369442,7.194968,Bremen,Bremen,111.9390231079362,112.21737759565673,5408
324,324,Emden Hbf,Emden Außenhafen,7,1092.0,1442,148.0,3.119462954323038,53.369442,7.194968,53.344498,7.186394,Bremen,Bremen,112.21737759565673,111.9390231079362,4732
325,325,Emden Hbf,Leer(Ostfriesl),64,12480.0,13184,333.0,27.10300865016721,53.369396,7.195112,53.231438,7.46537,Bremen,Bremen,112.20668033679416,90.75937099846033,43264
326,326,Emden Hbf,Marienhafe,12,2132.0,2472,86.0,19.33203817102466,53.369396,7.195112,53.51922,7.27422,Bremen,Bremen,112.20668033679416,113.71555770953857,8112
327,327,Emden Hbf,Norden,5,1196.0,1030,349.0,28.446641442156388,53.36936,7.195267,53.588104,7.219352,Bremen,Bremen,112.19563018731222,120.53586697840132,3380
328,328,Emden Hbf,Rheine,1,52.0,206,217.0,141.38930234245822,53.36936,7.195267,52.27575,7.434754,Bremen,Munster,112.19563018731222,23.215222437789443,676
329,329,Engen,Tuttlingen,19,3535.0,3914,118.0,19.66764579931182,47.8561,8.772597,47.98054,8.798271,Friedrichshafen,Friedrichshafen,59.07934043868958,63.514244166744724,12844
330,330,Ergenzingen,Bondorf(b Herrenberg),2,52.0,412,149.0,5.974955577880718,48.48959,8.810191,48.52329,8.827852,Stuttgart,Stuttgart,37.668208750574806,34.467006400374366,1352
331,331,Ergenzingen,Eutingen im Gäu,2,52.0,412,94.0,1.2362129551125294,48.489243,8.809751,48.479736,8.782361,Stuttgart,Stuttgart,37.71728767285998,39.975702306539574,1352
332,332,Erkelenz,Geilenkirchen,6,468.0,1236,346.0,14.756375547972787,51.076595,6.321634,50.96104,6.124518,Moenchengladbach,Moenchengladbach,21.352216522597722,40.06893266744887,4056
333,333,Erkelenz,Rheydt Hbf,2,676.0,412,316.0,17.539290424444445,51.076595,6.321634,51.162872,6.439879,Moenchengladbach,Moenchengladbach,21.352216522597722,8.752382300920429,1352
334,334,Erlangen,Bamberg,39,5823.0,8034,286.0,38.66424136323211,49.596188,11.001685,49.900574,10.900122,Nuernberg,Nuernberg,12.170037540147835,46.50449308613626,26364
335,335,Erlangen,Fürth(Bay)Hbf,6,571.0,1236,479.0,15.82734231237167,49.596157,11.001488,49.469738,10.990079,Nuernberg,Nuernberg,12.17344893681363,7.142339535811777,4056
336,336,Erlangen,Hauptbahnhof,8,936.0,1648,374.0,166.97821214537285,49.596188,11.001685,50.97211,11.037261,Nuernberg,Erfurt,12.170037540147835,5.6252208209058105,5408
337,337,Erlangen,Nürnberg Hbf,46,7329.0,9476,366.0,23.61875652291643,49.596157,11.001488,49.44541,11.082291,Nuernberg,Nuernberg,12.17344893681363,5.934685460023867,31096
338,338,Essen Hbf,Bochum Hbf,253,36189.0,52118,348.0,15.68107577325001,51.451363,7.014001,51.478394,7.222859,Duesseldorf,Dortmund,24.913260672359993,27.401815475445837,171028
339,339,Essen Hbf,Dortmund Hbf,35,2652.0,7210,322.0,33.73050530569333,51.45151,7.013974,51.51796,7.458703,Duesseldorf,Dortmund,24.92376723350873,10.657511502871603,23660
340,340,Essen Hbf,Duisburg Hbf,395,54134.0,81370,459.0,19.20445674672297,51.45159,7.013956,51.43,6.775696,Duesseldorf,Duesseldorf,24.929328838450363,15.643570114047156,267020
341,341,Essen Hbf,Düsseldorf Hbf,2,364.0,412,353.0,36.09272670582013,51.451736,7.013938,51.219612,6.794632,Duesseldorf,Duesseldorf,24.94019755643633,8.014810943900395,1352
342,342,Essen Hbf,Gelsenkirchen Hbf,12,682.0,2472,346.0,10.301254199939638,51.45151,7.013974,51.50487,7.103141,Duesseldorf,Duesseldorf,24.92376723350873,33.498318142898405,8112
343,343,Essen Hbf,Hamburg Hbf,2,728.0,412,230.0,353.3761987231439,51.451363,7.014001,53.55232,10.006654,Duesseldorf,Hamburg,24.913260672359993,8.775494125525059,1352
344,344,Essen Hbf,Mülheim(Ruhr)Hbf,2,728.0,412,342.0,14.879725238961097,51.451736,7.013938,51.431454,6.88679,Duesseldorf,Duesseldorf,24.94019755643633,17.868723850825834,1352
345,345,Essen Hbf,Münster(Westf)Hbf,13,2393.0,2678,612.0,82.7909506896868,51.45151,7.013974,51.95694,7.636075,Duesseldorf,Munster,24.92376723350873,20.04909717998054,8788
346,346,Essen Hbf,Recklinghausen Hbf,1,0.0,206,357.0,25.734231312135112,51.45151,7.013974,51.61667,7.203509,Duesseldorf,Dortmund,24.92376723350873,30.380400532126387,676
347,347,Essen Hbf,Wanne-Eickel Hbf,5,936.0,1030,348.0,15.465770478910237,51.45151,7.013974,51.531303,7.166328,Duesseldorf,Dortmund,24.92376723350873,30.98129113900027,3380
348,348,Esslingen(Neckar),Ulm Hbf,4,208.0,824,307.0,76.63947260529048,48.738544,9.300522,48.399345,9.982816,Stuttgart,Memmingen,7.917465808032558,49.47826424853365,2704
349,349,Eutingen im Gäu,Ergenzingen,2,52.0,412,149.0,1.2362129551125294,48.479736,8.782361,48.48959,8.810191,Stuttgart,Stuttgart,39.975702306539574,37.668208750574806,1352
350,350,Eutingen im Gäu,Horb,3,364.0,618,94.0,9.65537993109728,48.479736,8.782361,48.441597,8.688775,Stuttgart,Stuttgart,39.975702306539574,48.07256502136603,2028
351,351,Finnentrop,Lennestadt-Grevenbrück,11,1872.0,2266,192.0,5.378917563027877,51.1729,7.96467,51.14155,8.018138,Dortmund,Dortmund,45.602884762544434,50.568864980262944,7436
352,352,Finnentrop,Plettenberg,14,2236.0,2884,99.0,12.930215955804709,51.1729,7.96467,51.23197,7.868424,Dortmund,Dortmund,45.602884762544434,36.50998082148939,9464
353,353,Flensburg,Flensburg(Gr),10,3379.0,2060,9.0,4.759294880067378,54.773857,9.436511,54.814842,9.36324,Westerland,Westerland,72.10040346967638,66.57830581396603,6760
354,354,Flensburg,Schleswig,4,728.0,824,366.0,37.513502160616255,54.773857,9.436511,54.49946,9.53814,Westerland,Westerland,72.10040346967638,89.89518295616962,2704
355,355,Flensburg(Gr),Flensburg,11,3484.0,2266,9.0,4.759294880067379,54.814842,9.36324,54.773857,9.436511,Westerland,Westerland,66.57830581396603,72.10040346967638,7436
356,356,Flensburg(Gr),Schleswig,10,3640.0,2060,115.0,35.986997543932,54.814842,9.36324,54.49946,9.53814,Westerland,Westerland,66.57830581396603,89.89518295616962,6760
357,357,Flughafen BER,Berlin Ostkreuz,7,0.0,1442,265.0,26.084396820545816,52.36416,13.509246,52.503067,13.469961,Berlin,Berlin,1.9803932628780954,14.152619387627125,4732
358,358,Flughafen BER,Berlin Südkreuz,9,2808.0,1854,262.0,28.702933366905263,52.36416,13.509246,52.475433,13.365603,Berlin,Berlin,1.9803932628780954,15.055487410676475,6084
359,359,Flughafen BER,Doberlug-Kirchhain,18,3224.0,3708,101.0,101.55695482462514,52.364323,13.509145,51.62053,13.564161,Berlin,Dresden,1.9674366714456921,56.073824657469466,12168
360,360,Forbach(fr),Saarbrücken Hbf,9,1867.0,1854,1.0,4.919588328662313,49.21409,6.944314,49.241283,6.991011,Saarbruecken,Saarbruecken,12.035859865731137,9.127053027004743,6084
361,361,Frankfurt(M) Flughafen Fernbf,Aschaffenburg Hbf,1,208.0,206,559.0,52.26438075746902,50.053165,8.570185,49.980556,9.143697,Frankfurt,Egelsbach,2.2060714000421546,35.78978414585571,676
362,362,Frankfurt(M) Flughafen Fernbf,Düsseldorf Hbf,6,52.0,1236,398.0,202.5131445068561,50.053165,8.570185,51.219505,6.794866,Frankfurt,Duesseldorf,2.2060714000421546,8.030333576978997,4056
363,363,Frankfurt(M) Flughafen Fernbf,Frankfurt(Main)Hbf,362,44413.0,74572,459.0,11.229302197935173,50.053165,8.570185,50.106148,8.663123,Frankfurt,Frankfurt,2.2060714000421546,10.464967756734277,244712
364,364,Frankfurt(M) Flughafen Fernbf,Frankfurt(Main)Süd,34,4317.0,7004,259.0,10.760196964094153,50.053165,8.570185,50.099003,8.686179,Frankfurt,Frankfurt,2.2060714000421546,11.040189525637325,22984
365,365,Frankfurt(M) Flughafen Fernbf,Fulda,1,0.0,206,588.0,109.69490772669458,50.053165,8.570185,50.555016,9.683904,Frankfurt,Kassel,2.2060714000421546,98.19397942348768,676
366,366,Frankfurt(M) Flughafen Fernbf,Göttingen,1,156.0,206,509.0,244.02869714532787,50.053165,8.570185,51.536682,9.926424,Frankfurt,Kassel,2.2060714000421546,39.894848319636175,676
367,367,Frankfurt(M) Flughafen Fernbf,Koblenz Hbf,2,0.0,412,325.0,117.45642549514412,50.053165,8.570185,50.35093,7.588345,Frankfurt,Cologne,2.2060714000421546,65.39529694351178,1352
368,368,Frankfurt(M) Flughafen Fernbf,Köln Hbf,97,14664.0,19982,102.0,185.3199109034002,50.053165,8.570185,50.94303,6.958729,Frankfurt,Cologne,2.2060714000421546,15.529488516506833,65572
369,369,Frankfurt(M) Flughafen Fernbf,Köln Messe/Deutz Gl.11-12,49,6917.0,10094,229.0,167.3348230129545,50.053165,8.570185,50.9416,6.973954,Frankfurt,Cologne,2.2060714000421546,14.556356007378396,33124
370,370,Frankfurt(M) Flughafen Fernbf,Limburg Süd,55,6708.0,11330,348.0,58.6429566129872,50.053165,8.570185,50.3819,8.095546,Frankfurt,Frankfurt,2.2060714000421546,51.50825470315171,37180
371,371,Frankfurt(M) Flughafen Fernbf,Mainz Hbf,100,12796.0,20600,499.0,25.730218197274816,50.053165,8.570185,50.001118,8.25872,Frankfurt,Frankfurt,2.2060714000421546,22.63473828791361,67600
372,372,Frankfurt(M) Flughafen Fernbf,Mannheim Hbf,164,22716.0,33784,309.0,71.73727741617144,50.053165,8.570185,49.47901,8.469757,Frankfurt,Mannheim,2.2060714000421546,3.2858727989776653,110864
373,373,Frankfurt(M) Flughafen Fernbf,Montabaur,2,312.0,412,485.0,80.63111459976527,50.053165,8.570185,50.444836,7.825333,Frankfurt,Cologne,2.2060714000421546,67.26013360882693,1352
374,374,Frankfurt(M) Flughafen Fernbf,Nürnberg Hbf,2,572.0,412,246.0,232.78535000183203,50.053165,8.570185,49.445267,11.082363,Frankfurt,Nuernberg,2.2060714000421546,5.950839938273472,1352
375,375,Frankfurt(M) Flughafen Fernbf,Siegburg/Bonn,98,10662.0,20188,302.0,210.26228238624296,50.053165,8.570185,50.79396,7.20262,Frankfurt,Cologne,2.2060714000421546,9.046679937424303,66248
376,376,Frankfurt(M) Flughafen Fernbf,Solingen Hbf,1,0.0,206,259.0,190.3402025690707,50.053165,8.570185,51.160767,7.004187,Frankfurt,Duesseldorf,2.2060714000421546,21.912753923491373,676
377,377,Frankfurt(M) Flughafen Fernbf,Wiesbaden Hbf,10,1508.0,2060,297.0,30.065686161089943,50.053165,8.570185,50.069477,8.244631,Frankfurt,Frankfurt,2.2060714000421546,23.68617264640001,6760
378,378,Frankfurt(M) Flughafen Regionalbf,Frankfurt(Main)Hbf,7,624.0,1442,497.0,11.634554931722016,50.05122,8.571251,50.106102,8.663151,Frankfurt,Frankfurt,1.990191624017044,10.462280324849191,4732
379,379,Frankfurt(M) Flughafen Regionalbf,Mainz Hbf,8,884.0,1648,430.0,27.952441319377577,50.05122,8.571251,50.001118,8.25872,Frankfurt,Frankfurt,1.990191624017044,22.63473828791361,5408
380,380,Frankfurt(M) Flughafen Regionalbf,Wiesbaden Hbf,2,312.0,412,229.0,31.811298210086875,50.05122,8.571251,50.06972,8.243677,Frankfurt,Frankfurt,1.990191624017044,23.758040068764707,1352
381,381,Frankfurt(Main)Hbf,Aschaffenburg Hbf,89,12793.0,18334,255.0,45.91982113937499,50.106148,8.663123,49.98065,9.14343,Frankfurt,Egelsbach,10.464967756734277,35.771303992242345,60164
382,382,Frankfurt(Main)Hbf,"Bahnhof, Friedberg (Hessen)",7,1352.0,1442,262.0,33.836025404461786,50.10636,8.662772,50.33204,8.760561,Frankfurt,Frankfurt,10.46735221179103,35.89052500293792,4732
383,383,Frankfurt(Main)Hbf,Berlin-Spandau,7,1196.0,1442,246.0,524.1933408880648,50.10652,8.662645,52.534542,13.197124,Frankfurt,Berlin,10.47543742279689,28.01642605986845,4732
384,384,Frankfurt(Main)Hbf,Darmstadt Hbf,44,5768.0,9064,100.0,27.63609358055014,50.10652,8.662645,49.87304,8.629164,Frankfurt,Egelsbach,10.47543742279689,9.746035119922867,29744
385,385,Frankfurt(Main)Hbf,Düsseldorf Hbf,3,156.0,618,409.0,213.7006593910262,50.1062,8.663011,51.219433,6.795027,Frankfurt,Duesseldorf,10.46436894574695,8.040851098940184,2028
386,386,Frankfurt(Main)Hbf,Eisenach Hbf,8,833.0,1648,315.0,200.9663026109894,50.106262,8.662941,50.975952,10.331229,Frankfurt,Erfurt,10.466541063862747,44.027784173465875,5408
387,387,Frankfurt(Main)Hbf,Frankfurt(M) Flughafen Fernbf,324,44616.0,66744,102.0,11.223224975429186,50.10696,8.662195,50.053165,8.570185,Frankfurt,Frankfurt,10.49332495722457,2.2060714000421546,219024
388,388,Frankfurt(Main)Hbf,Frankfurt(M) Flughafen Regionalbf,8,884.0,1648,430.0,11.623791638818547,50.10696,8.662195,50.05122,8.571251,Frankfurt,Frankfurt,10.49332495722457,1.990191624017044,5408
389,389,Frankfurt(Main)Hbf,Frankfurt(Main)Süd,5,783.0,1030,231.0,4.8656376301088455,50.10587,8.663474,50.099003,8.686179,Frankfurt,Frankfurt,10.457033982092392,11.040189525637325,3380
390,390,Frankfurt(Main)Hbf,Frankfurt(Main)West,25,2912.0,5150,226.0,3.342670817383883,50.10662,8.662561,50.11939,8.638952,Frankfurt,Frankfurt,10.480298780027107,10.751580518049558,16900
391,391,Frankfurt(Main)Hbf,Fulda,64,8736.0,13184,241.0,103.35130305015431,50.106102,8.663151,50.555016,9.683904,Frankfurt,Kassel,10.462280324849191,98.19397942348768,43264
392,392,Frankfurt(Main)Hbf,Hanau Hbf,155,19140.0,31930,459.0,22.80287351999292,50.106148,8.663123,50.121346,8.928415,Frankfurt,Egelsbach,10.464967756734277,27.052742364364295,104780
393,393,Frankfurt(Main)Hbf,Hannover Hbf,3,676.0,618,289.0,337.25762269295933,50.1062,8.663011,52.37726,9.74143,Frankfurt,Hannover,10.46436894574695,10.086491029663051,2028
394,394,Frankfurt(Main)Hbf,Hauptbahnhof,24,3068.0,4944,377.0,257.56921987960885,50.106262,8.662941,50.97211,11.037261,Frankfurt,Erfurt,10.466541063862747,5.6252208209058105,16224
395,395,Frankfurt(Main)Hbf,Heidelberg Hbf,6,884.0,1236,296.0,87.16143431480859,50.106102,8.663151,49.40357,8.675442,Frankfurt,Mannheim,10.462280324849191,14.0193556618086,4056
396,396,Frankfurt(Main)Hbf,Kassel-Wilhelmshöhe,70,10920.0,14420,365.0,193.0855283940071,50.1062,8.663011,51.312435,9.448181,Frankfurt,Kassel,10.46436894574695,12.46701376688958,47320
397,397,Frankfurt(Main)Hbf,Köln Hbf,1,52.0,206,351.0,196.53964545129068,50.106102,8.663151,50.94303,6.958729,Frankfurt,Cologne,10.462280324849191,15.529488516506833,676
398,398,Frankfurt(Main)Hbf,Köln Messe/Deutz Gl.11-12,7,260.0,1442,427.0,178.5491880538505,50.10696,8.662195,50.9416,6.973954,Frankfurt,Cologne,10.49332495722457,14.556356007378396,4732
399,399,Frankfurt(Main)Hbf,Mainz-Kastel,1,208.0,206,326.0,33.51815629850565,50.1069,8.662237,50.00722,8.282239,Frankfurt,Frankfurt,10.490000810298572,20.865543783991455,676
400,400,Frankfurt(Main)Hbf,Mannheim Hbf,242,29952.0,49852,488.0,77.91001008769923,50.106262,8.662941,49.47901,8.469757,Frankfurt,Mannheim,10.466541063862747,3.2858727989776653,163592
401,401,Frankfurt(Main)Hbf,Stuttgart Hbf,1,312.0,206,191.0,178.62887723241468,50.10696,8.662195,48.784748,9.183217,Frankfurt,Stuttgart,10.49332495722457,10.925799202652843,676
402,402,Frankfurt(Main)Hbf,Wiesbaden Hbf,5,364.0,1030,303.0,41.002662873746814,50.1062,8.663011,50.06972,8.243677,Frankfurt,Frankfurt,10.46436894574695,23.758040068764707,3380
403,403,Frankfurt(Main)Hbf,Würzburg Hbf,5,260.0,1030,326.0,124.05798486081449,50.106102,8.663151,49.802,9.935924,Frankfurt,Nuernberg,10.462280324849191,89.10913531834964,3380
404,404,Frankfurt(Main)Süd,Berlin-Spandau,5,1035.0,1030,263.0,519.7630717368701,50.099064,8.686108,52.534485,13.1971,Frankfurt,Berlin,11.040866326854307,28.01383266385196,3380
405,405,Frankfurt(Main)Süd,Darmstadt Hbf,7,520.0,1442,352.0,26.51007542692956,50.099064,8.686108,49.87304,8.629164,Frankfurt,Egelsbach,11.040866326854307,9.746035119922867,4732
406,406,Frankfurt(Main)Süd,Frankfurt(M) Flughafen Fernbf,15,2652.0,3090,306.0,10.760196964094154,50.099205,8.685283,50.053165,8.570185,Frankfurt,Frankfurt,11.00709961554811,2.2060714000421546,10140
407,407,Frankfurt(Main)Süd,Frankfurt(M) Flughafen Regionalbf,2,312.0,412,229.0,11.17499103462231,50.099064,8.686108,50.05122,8.571251,Frankfurt,Frankfurt,11.040866326854307,1.990191624017044,1352
408,408,Frankfurt(Main)Süd,Frankfurt(Main)Hbf,3,416.0,618,250.0,4.865637630108846,50.099003,8.686179,50.10577,8.663461,Frankfurt,Frankfurt,11.040189525637325,10.447866019657413,2028
409,409,Frankfurt(Main)Süd,Fulda,17,2861.0,3502,286.0,98.93671958380828,50.099003,8.686179,50.555016,9.683904,Frankfurt,Kassel,11.040189525637325,98.19397942348768,11492
410,410,Frankfurt(Main)Süd,Göttingen,1,0.0,206,529.0,233.2705090024416,50.099003,8.686179,51.536682,9.926424,Frankfurt,Kassel,11.040189525637325,39.894848319636175,676
411,411,Frankfurt(Main)Süd,Hanau Hbf,22,2291.0,4532,259.0,18.389244995200592,50.099003,8.686179,50.121346,8.928415,Frankfurt,Egelsbach,11.040189525637325,27.052742364364295,14872
412,412,Frankfurt(Main)Süd,Karlsruhe Hbf,2,520.0,412,318.0,131.2321665973385,50.099003,8.686179,48.993732,8.401071,Frankfurt,Karlsruhe/Baden-Baden,11.040189525637325,33.478949403541954,1352
413,413,Frankfurt(Main)Süd,Mannheim Hbf,6,676.0,1236,323.0,77.369095425759,50.099205,8.685283,49.479355,8.468921,Frankfurt,Mannheim,11.00709961554811,3.3530328993319274,4056
414,414,Frankfurt(Main)West,Bad Nauheim,12,2080.0,2472,226.0,35.52628240853626,50.11939,8.638952,50.367695,8.749241,Frankfurt,Frankfurt,10.751580518049558,39.319248010147916,8112
415,415,Frankfurt(Main)West,"Bahnhof, Friedberg (Hessen)",13,832.0,2678,281.0,30.25376384949328,50.11939,8.638952,50.33204,8.760561,Frankfurt,Frankfurt,10.751580518049558,35.89052500293792,8788
416,416,Frankfurt(Main)West,Frankfurt(Main)Hbf,15,2340.0,3090,181.0,3.3430733459821687,50.11939,8.638952,50.10652,8.662645,Frankfurt,Frankfurt,10.751580518049558,10.47543742279689,10140
417,417,Frankfurt(Oder),Berlin Gesundbrunnen,1,52.0,206,60.0,87.0526663462022,52.336605,14.546146,52.548573,13.390519,Berlin,Berlin,69.90570271538083,20.79247284924179,676
418,418,Frankfurt(Oder),Berlin Ostbahnhof,9,3224.0,1854,53.0,80.7832758990832,52.336643,14.54624,52.510254,13.435024,Berlin,Berlin,69.911769570215,15.666963115820067,6084
419,419,Frankfurt(Oder),Berlin Ostkreuz,2,520.0,412,59.0,81.3068197482311,52.336605,14.546146,52.50304,13.468615,Berlin,Berlin,69.90570271538083,14.173099212651165,1352
420,420,Frankfurt(Oder),Berlin-Lichtenberg,16,3848.0,3296,75.0,79.41110661598765,52.336605,14.546146,52.510002,13.49649,Berlin,Berlin,69.90570271538083,14.573670690434527,10816
421,421,Frankfurt(Oder),Frankfurt(Oder)(Gr),22,7072.0,4532,65.0,3.578298159030237,52.336563,14.545988,52.321175,14.576403,Berlin,Berlin,69.89532041141662,72.11023570112256,14872
422,422,Frankfurt(Oder)(Gr),Frankfurt(Oder),28,7644.0,5768,75.0,3.5782981590302363,52.321175,14.576403,52.336605,14.546146,Berlin,Berlin,72.11023570112256,69.90570271538083,18928
423,423,Freiberg(Sachs),Chemnitz Hbf,6,1248.0,1236,167.0,41.28038082532032,50.908737,13.344644,50.84002,12.930907,Dresden,Dresden,38.73519680875462,67.1505995241436,4056
424,424,Freiberg(Sachs),Dresden Hbf,4,728.0,824,312.0,41.227620105824215,50.908634,13.344572,51.040016,13.731531,Dresden,Dresden,38.74646286810935,10.620584392432308,2704
425,425,Freiberg(Sachs),Dresden-Neustadt,2,312.0,412,308.0,43.47632493498625,50.908634,13.344572,51.06591,13.740541,Dresden,Dresden,38.74646286810935,7.672375059115484,1352
426,426,Freiburg(Breisgau) Hbf,Baden-Baden,24,3848.0,4944,365.0,102.58766463500558,47.997704,7.841619,48.79032,8.190731,Karlsruhe/Baden-Baden,Karlsruhe/Baden-Baden,88.70505639953737,8.191027585134789,16224
427,427,Freiburg(Breisgau) Hbf,Karlsruhe Hbf,5,988.0,1030,336.0,131.55993312002138,47.997704,7.841619,48.993675,8.401116,Karlsruhe/Baden-Baden,Karlsruhe/Baden-Baden,88.70505639953737,33.47676397706569,3380
428,428,Freiburg(Breisgau) Hbf,Lahr(Schwarzw),2,260.0,412,260.0,44.62358023129865,47.997704,7.841619,48.340435,7.834734,Karlsruhe/Baden-Baden,Karlsruhe/Baden-Baden,88.70505639953737,52.07531462946974,1352
429,429,Freiburg(Breisgau) Hbf,Müllheim im Markgräflerland,3,260.0,618,249.0,29.20302464712204,47.99773,7.841511,47.809742,7.599332,Karlsruhe/Baden-Baden,Karlsruhe/Baden-Baden,88.70381829224624,113.57870775876398,2028
430,430,Freiburg(Breisgau) Hbf,Offenburg,139,18880.0,28634,344.0,62.67299746462807,47.997704,7.841619,48.476475,7.946723,Karlsruhe/Baden-Baden,Karlsruhe/Baden-Baden,88.70505639953737,35.099757324828836,93964
431,431,Freiburg(Breisgau) Hbf,Ringsheim/Europa-Park,3,468.0,618,134.0,31.7220165277749,47.997704,7.841619,48.248688,7.772987,Karlsruhe/Baden-Baden,Karlsruhe/Baden-Baden,88.70505639953737,63.23731894285458,2028
432,432,Freilassing,Traunstein,17,3017.0,3502,225.0,29.13085238906132,47.836205,12.977997,47.868744,12.638541,Munich,Munich,105.80266618365306,83.29532659939895,11492
433,433,Friedrichshafen Stadt,Lindau-Reutin,3,676.0,618,426.0,24.41480086390277,47.653084,9.473498,47.552383,9.703292,Friedrichshafen,Friedrichshafen,3.4992280007272676,19.564032433429947,2028
434,434,Friedrichshafen Stadt,Ravensburg,2,520.0,412,439.0,19.110994817905013,47.653084,9.473498,47.784374,9.606126,Friedrichshafen,Friedrichshafen,3.4992280007272676,14.438202873852605,1352
435,435,Fulda,Bad Hersfeld,31,4888.0,6386,288.0,42.44413853398312,50.555016,9.683904,50.869633,9.716182,Kassel,Kassel,98.19397942348768,65.18549200855233,20956
436,436,Fulda,Eisenach Hbf,24,3432.0,4944,241.0,97.62054070790208,50.555016,9.683904,50.975952,10.331229,Kassel,Erfurt,98.19397942348768,44.027784173465875,16224
437,437,Fulda,Frankfurt(Main)Hbf,82,10246.0,16892,297.0,103.35130305015424,50.555016,9.683904,50.106102,8.663151,Kassel,Frankfurt,98.19397942348768,10.462280324849191,55432
438,438,Fulda,Frankfurt(Main)Süd,11,2288.0,2266,250.0,98.9367195838082,50.555016,9.683904,50.099003,8.686179,Kassel,Frankfurt,98.19397942348768,11.040189525637325,7436
439,439,Fulda,Göttingen,14,1196.0,2884,486.0,134.33761609716822,50.555016,9.683904,51.536682,9.926424,Kassel,Kassel,98.19397942348768,39.894848319636175,9464
440,440,Fulda,Hanau Hbf,97,12010.0,19982,488.0,80.97578215912853,50.555016,9.683904,50.121346,8.928415,Kassel,Egelsbach,98.19397942348768,27.052742364364295,65572
441,441,Fulda,Kassel-Wilhelmshöhe,204,28043.0,42024,354.0,89.73952212817389,50.555016,9.683904,51.312435,9.448181,Kassel,Kassel,98.19397942348768,12.46701376688958,137904
442,442,Fulda,Würzburg Hbf,139,17319.0,28634,358.0,93.11422872820587,50.555016,9.683904,49.80213,9.935987,Kassel,Nuernberg,98.19397942348768,89.11029762198788,93964
443,443,Fürth Hauptbahnhof,Erlangen,6,675.0,1236,426.0,16.087941422920466,49.470367,10.991229,49.596188,11.001685,Nuernberg,Nuernberg,7.036424725792567,12.170037540147835,4056
444,444,Fürth(Bay)Hbf,Ingolstadt Hbf,5,832.0,1030,302.0,97.49033816944308,49.469707,10.989988,48.745197,11.436111,Nuernberg,Munich,7.149781445630549,50.615825862927146,3380
445,445,Fürth(Bay)Hbf,Nürnberg Hbf,6,571.0,1236,479.0,8.20927075607661,49.469738,10.990079,49.445053,11.08248,Nuernberg,Nuernberg,7.142339535811777,5.975057125656089,4056
446,446,Fürth(Bay)Hbf,Würzburg Hbf,1,208.0,206,194.0,94.1755475100512,49.47032,10.990663,49.80213,9.935987,Nuernberg,Nuernberg,7.075451355034059,89.11029762198788,676
447,447,Garmisch-Partenkirchen,Mittenwald,4,104.0,824,476.0,19.470039259374342,47.49119,11.098515,47.440243,11.265224,Memmingen,Memmingen,84.92101008970192,98.20106009260039,2704
448,448,Garmisch-Partenkirchen,Murnau,4,156.0,824,313.0,25.822049291361928,47.49107,11.098209,47.682854,11.193053,Memmingen,Memmingen,84.91235163410578,79.07482850564794,2704
449,449,Geilenkirchen,Aachen Hbf,4,156.0,824,346.0,25.94879214494736,50.96104,6.124518,50.7678,6.091499,Moenchengladbach,Moenchengladbach,40.06893266744887,59.05410835537069,2704
450,450,Geilenkirchen,Erkelenz,2,676.0,412,316.0,14.756375547972787,50.96104,6.124518,51.076595,6.321634,Moenchengladbach,Moenchengladbach,40.06893266744887,21.352216522597722,1352
451,451,Geilenkirchen,Herzogenrath,2,312.0,412,316.0,11.485899422872969,50.96104,6.124518,50.870914,6.094486,Moenchengladbach,Moenchengladbach,40.06893266744887,49.24102886534925,1352
452,452,Gelsenkirchen Hbf,Dortmund Hbf,3,260.0,618,303.0,30.550349942285283,51.5049,7.102455,51.517723,7.458775,Duesseldorf,Dortmund,33.46735606951771,10.65266746827015,2028
453,453,Gelsenkirchen Hbf,Duisburg Hbf,8,364.0,1648,275.0,25.75794308857676,51.5049,7.102455,51.42997,6.775902,Duesseldorf,Duesseldorf,33.46735606951771,15.640811372007166,5408
454,454,Gelsenkirchen Hbf,Essen Hbf,6,1872.0,1236,401.0,10.301254199939637,51.50504,7.103051,51.451736,7.013938,Duesseldorf,Duesseldorf,33.50744414178179,24.94019755643633,4056
455,455,Gelsenkirchen Hbf,Hamm(Westf)Hbf,1,0.0,206,339.0,59.23802183738195,51.5049,7.102455,51.678474,7.807276,Duesseldorf,Dortmund,33.46735606951771,22.365646050861127,676
456,456,Gelsenkirchen Hbf,Münster(Westf)Hbf,1,0.0,206,371.0,72.66025849534557,51.50487,7.103141,51.95694,7.636075,Duesseldorf,Munster,33.498318142898405,20.04909717998054,676
457,457,Gelsenkirchen Hbf,Oberhausen Hbf,20,4680.0,4120,269.0,19.315229270285567,51.50504,7.103051,51.474583,6.851163,Duesseldorf,Duesseldorf,33.50744414178179,21.41303489143475,13520
458,458,Gelsenkirchen Hbf,Recklinghausen Hbf,10,682.0,2060,346.0,15.60353911779388,51.50487,7.103141,51.61667,7.203509,Duesseldorf,Dortmund,33.498318142898405,30.380400532126387,6760
459,459,Gelsenkirchen Hbf,Wanne-Eickel Hbf,20,4004.0,4120,349.0,5.335289826538891,51.504982,7.103087,51.531303,7.166328,Duesseldorf,Dortmund,33.50458690152383,30.98129113900027,13520
460,460,Gera Hbf,Hermsdorf-Klosterlausnitz,3,988.0,618,158.0,20.01088377170668,50.883423,12.077092,50.903778,11.858626,Leipzig,Leipzig,61.15168671924264,63.611056765836096,2028
461,461,Gießen,"Bahnhof, Friedberg (Hessen)",20,1976.0,4120,181.0,32.91707710273547,50.579884,8.663799,50.33204,8.760561,Frankfurt,Frankfurt,61.15737088796258,35.89052500293792,13520
462,462,Gießen,Marburg(Lahn),20,2184.0,4120,262.0,30.44874180870008,50.579884,8.663799,50.819256,8.77516,Frankfurt,Kassel,61.15737088796258,79.05206345538858,13520
463,463,Gotha,Eisenach Hbf,38,5931.0,7828,297.0,29.08427083252444,50.93907,10.712568,50.975952,10.331229,Erfurt,Erfurt,17.835994649870564,44.027784173465875,25688
464,464,Gotha,Hauptbahnhof,48,7645.0,9888,241.0,27.89275404657388,50.93907,10.712568,50.97211,11.037261,Erfurt,Erfurt,17.835994649870564,5.6252208209058105,32448
465,465,Greifswald,Stralsund Hbf,21,2444.0,4326,415.0,30.79481868339835,54.092815,13.370453,54.30801,13.078087,Laage,Laage,74.1990448065139,67.95737195310232,14196
466,466,Greifswald,Züssow,15,1820.0,3090,423.0,18.857476312213283,54.092815,13.370453,53.97243,13.549999,Laage,Laage,74.1990448065139,83.7186084723547,10140
467,467,Gäufelden,Bondorf(b Herrenberg),24,4106.0,4944,98.0,8.002143640473003,48.559734,8.85004,48.52328,8.827735,Stuttgart,Stuttgart,31.004100146042802,34.474882464638476,16224
468,468,Gäufelden,Herrenberg,20,3327.0,4120,118.0,0.6751953012281733,48.559704,8.850157,48.593933,8.862895,Stuttgart,Stuttgart,30.99803808173585,28.532127668516402,13520
469,469,Göttingen,Frankfurt(Main)Hbf,1,0.0,206,455.0,237.6833780002556,51.53667,9.925681,50.106262,8.662941,Kassel,Frankfurt,39.84573785458115,10.466541063862747,676
470,470,Göttingen,Fulda,17,1144.0,3502,488.0,134.3376160971682,51.53667,9.925681,50.555016,9.683904,Kassel,Kassel,39.84573785458115,98.19397942348768,11492
471,471,Göttingen,Hanau Hbf,1,312.0,206,468.0,215.3095715777618,51.53667,9.925681,50.121346,8.928415,Kassel,Egelsbach,39.84573785458115,27.052742364364295,676
472,472,Göttingen,Hannover Hbf,243,31630.0,50058,354.0,99.63019182596597,51.53674,9.925647,52.37726,9.74143,Kassel,Hannover,39.846080924129986,10.086491029663051,164268
473,473,Göttingen,Hannover Messe/Laatzen,19,156.0,3914,273.0,92.42731696129084,51.53667,9.925681,52.317005,9.792903,Kassel,Hannover,39.84573785458115,17.634768059913707,12844
474,474,Göttingen,Hildesheim Hbf,75,13105.0,15450,259.0,79.06515660952402,51.53674,9.925647,52.160027,9.952812,Kassel,Hannover,39.846080924129986,38.15454289558261,50700
475,475,Göttingen,Kassel-Wilhelmshöhe,406,52363.0,83636,358.0,44.59809396899432,51.536865,9.92561,51.312435,9.448181,Kassel,Kassel,39.848250676619145,12.46701376688958,274456
476,476,Göttingen,Würzburg Hbf,12,936.0,2472,437.0,227.4480181468392,51.53667,9.925681,49.80213,9.935987,Kassel,Nuernberg,39.84573785458115,89.11029762198788,8112
477,477,Günzburg,Augsburg Hbf,62,6918.0,12772,627.0,61.01632193101428,48.46052,10.27926,48.3656,10.885713,Augsburg,Augsburg,48.42660000463885,7.457760588517425,41912
478,478,Günzburg,Ulm Hbf,49,7126.0,10094,199.0,24.510260567812303,48.460575,10.279224,48.399345,9.982933,Augsburg,Memmingen,48.42972398438987,49.47491011525626,33124
479,479,Gütersloh Hbf,Bielefeld Hbf,93,11391.0,19158,233.0,17.779144717628576,51.906822,8.384893,52.029522,8.533106,Paderborn,Paderborn,36.27735823357615,46.5760856907672,62868
480,480,Gütersloh Hbf,Hamm(Westf)Hbf,131,14039.0,26986,298.0,50.41093842584122,51.90686,8.38483,51.678474,7.807276,Paderborn,Dortmund,36.28306705976287,22.365646050861127,88556
481,481,Hagen Hbf,Dortmund Hbf,98,13679.0,20188,439.0,23.49625813993004,51.363895,7.460697,51.517723,7.458775,Dortmund,Dortmund,20.152512281915772,10.65266746827015,66248
482,482,Hagen Hbf,Hamm(Westf)Hbf,38,6604.0,7828,259.0,48.44779228474551,51.363895,7.460697,51.67856,7.807896,Dortmund,Dortmund,20.152512281915772,22.399238795359018,25688
483,483,Hagen Hbf,Wuppertal Hbf,198,27507.0,40788,381.0,26.43451442857512,51.36264,7.46049,51.254597,7.150042,Dortmund,Duesseldorf,20.27922353427604,27.026853734939603,133848
484,484,Halle(Saale)Hbf,Berlin Südkreuz,58,7540.0,11948,377.0,159.5957000234433,51.47751,11.987085,52.475685,13.365454,Leipzig,Berlin,18.328514070702045,15.082434607346643,39208
485,485,Halle(Saale)Hbf,Berlin-Wannsee,4,52.0,824,319.0,154.91872946019015,51.47751,11.987085,52.42135,13.180446,Leipzig,Berlin,18.328514070702045,23.73156178703518,2704
486,486,Halle(Saale)Hbf,Bitterfeld,26,4057.0,5356,284.0,29.652319065650776,51.47751,11.987085,51.62286,12.31685,Leipzig,Leipzig,18.328514070702045,22.830672912466124,17576
487,487,Halle(Saale)Hbf,Dessau Hbf,4,520.0,824,304.0,55.53408455490662,51.47751,11.987085,51.839867,12.234945,Leipzig,Leipzig,18.328514070702045,46.281964674135736,2704
488,488,Halle(Saale)Hbf,Hauptbahnhof,115,14085.0,23690,238.0,92.30595541521926,51.47751,11.987085,50.97211,11.037261,Leipzig,Erfurt,18.328514070702045,5.6252208209058105,77740
489,489,Halle(Saale)Hbf,Köthen,97,12012.0,19982,304.0,35.76436484400444,51.47751,11.987085,51.75193,11.989358,Leipzig,Leipzig,18.328514070702045,40.31379798569183,65572
490,490,Halle(Saale)Hbf,Leipzig Hbf,48,7850.0,9888,333.0,34.14525858525086,51.47751,11.987085,51.34547,12.382064,Leipzig,Leipzig,18.328514070702045,13.37769855424209,32448
491,491,Halle(Saale)Hbf,Leipzig/Halle Flughafen,55,7176.0,11330,149.0,17.922641497313066,51.47751,11.987085,51.42334,12.223426,Leipzig,Leipzig,18.328514070702045,0.9037278173344462,37180
492,492,Halle(Saale)Hbf,Naumburg(Saale)Hbf,5,519.0,1030,479.0,46.2617107256071,51.47751,11.987085,51.16307,11.796984,Leipzig,Leipzig,18.328514070702045,42.20684062615441,3380
493,493,Hamburg Dammtor,Hamburg Hbf,502,59690.0,103412,424.0,0.7456041547277107,53.560757,9.989569,53.55271,10.007025,Hamburg,Hamburg,7.751774837060339,8.735977122900149,339352
494,494,Hamburg Dammtor,Hamburg-Altona,167,21112.0,34402,365.0,6.037119693688126,53.560757,9.989569,53.55277,9.934896,Hamburg,Hamburg,7.751774837060339,9.334064689475973,112892
495,495,Hamburg Dammtor,Itzehoe,7,1145.0,1442,430.0,68.46711065064329,53.560757,9.989569,53.924175,9.510147,Hamburg,Hamburg,7.751774837060339,45.414301574489336,4732
496,496,Hamburg Dammtor,Neumünster,28,4785.0,5768,390.0,74.61124404333788,53.560757,9.989569,54.075672,9.979839,Hamburg,Hamburg,7.751774837060339,49.562676609034035,18928
497,497,Hamburg Hbf,Berlin-Spandau,78,8889.0,16068,115.0,275.23638001500035,53.55252,10.007353,52.534542,13.197124,Hamburg,Berlin,8.760021822370117,28.01642605986845,52728
498,498,Hamburg Hbf,Bremen Hbf,12,2444.0,2472,537.0,115.22246492594712,53.55271,10.007025,53.083565,8.81426,Hamburg,Bremen,8.735977122900149,4.419170012483646,8112
499,499,Hamburg Hbf,Büchen,33,4311.0,6798,258.0,46.913141822943416,53.55252,10.007353,53.474976,10.623292,Hamburg,Luebeck,8.760021822370117,37.31877487408249,22308
500,500,Hamburg Hbf,Essen Hbf,1,208.0,206,219.0,353.37619872314417,53.552303,10.006336,51.451736,7.013938,Hamburg,Duesseldorf,8.774465883492523,24.94019755643633,676
501,501,Hamburg Hbf,Hamburg Dammtor,203,27042.0,41818,365.0,0.7456041547277107,53.55271,10.007025,53.560757,9.989569,Hamburg,Hamburg,8.735977122900149,7.751774837060339,137228
502,502,Hamburg Hbf,Hamburg-Altona,54,7437.0,11124,336.0,6.352860375881783,53.55252,10.007353,53.552773,9.935077,Hamburg,Hamburg,8.760021822370117,9.329227464061312,36504
503,503,Hamburg Hbf,Hamburg-Bergedorf,4,364.0,824,134.0,16.648062304399577,53.55271,10.007025,53.48955,10.206101,Hamburg,Hamburg,8.735977122900149,21.311561934066127,2704
504,504,Hamburg Hbf,Hamburg-Harburg,299,33596.0,61594,358.0,11.864242697588931,53.55271,10.007025,53.456177,9.991349,Hamburg,Hamburg,8.735977122900149,19.391686949744457,202124
505,505,Hamburg Hbf,Hannover Hbf,121,16325.0,24926,291.0,164.55057953509976,53.55271,10.007025,52.376934,9.740981,Hamburg,Hannover,8.735977122900149,10.108525873757078,81796
506,506,Hamburg Hbf,Ludwigslust,12,1872.0,2472,357.0,114.9573254265832,53.55271,10.007025,53.334885,11.49398,Hamburg,Luebeck,8.735977122900149,73.32680823035828,8112
507,507,Hamburg Hbf,Lübeck Hbf,5,937.0,1030,375.0,62.44666656379672,53.55252,10.007353,53.867367,10.668852,Hamburg,Luebeck,8.760021822370117,7.65207221882613,3380
508,508,Hamburg Hbf,Lüneburg,20,1768.0,4120,420.0,49.919302568878166,53.55271,10.007025,53.249535,10.419739,Hamburg,Hamburg,8.735977122900149,51.17622879674875,13520
509,509,Hamburg Hbf,Neumünster,11,2548.0,2266,118.0,75.10939281023171,53.55271,10.007025,54.07571,9.980097,Hamburg,Hamburg,8.735977122900149,49.56671976850105,7436
510,510,Hamburg Hbf,Recklinghausen Hbf,20,1404.0,4120,495.0,327.7018115030378,53.55271,10.007025,51.61667,7.203509,Hamburg,Dortmund,8.735977122900149,30.380400532126387,13520
511,511,Hamburg Hbf,Schleswig,5,1820.0,1030,114.0,138.91189837321525,53.55271,10.007025,54.499577,9.538158,Hamburg,Westerland,8.735977122900149,89.8894126755889,3380
512,512,Hamburg Hbf,Schwerin Hbf,28,2965.0,5768,283.0,122.23453104834532,53.551598,10.006923,53.63563,11.407544,Hamburg,Luebeck,8.85755009760339,49.21229930833745,18928
513,513,Hamburg Hbf,Wittenberge,8,673.0,1648,366.0,158.93485405418156,53.55252,10.007353,53.003883,11.762578,Hamburg,Laage,8.760021822370117,107.36889149790889,5408
514,514,Hamburg-Altona,Hamburg Dammtor,257,27917.0,52942,424.0,6.037119693688129,53.552803,9.934821,53.560757,9.989569,Hamburg,Hamburg,9.33254528401484,7.751774837060339,173732
515,515,Hamburg-Altona,Hamburg Hbf,41,4988.0,8446,258.0,6.59674498963091,53.552803,9.934821,53.55252,10.007353,Hamburg,Hamburg,9.33254528401484,8.760021822370117,27716
516,516,Hamburg-Altona,Neumünster,2,364.0,412,463.0,70.99458464245248,53.552803,9.934821,54.075672,9.979839,Hamburg,Hamburg,9.33254528401484,49.562676609034035,1352
517,517,Hamburg-Bergedorf,Büchen,6,364.0,1236,137.0,31.066821991650613,53.48955,10.206101,53.474976,10.623292,Hamburg,Luebeck,21.311561934066127,37.31877487408249,4056
518,518,Hamburg-Bergedorf,Hamburg Hbf,7,1248.0,1442,262.0,16.58658577535064,53.48963,10.205985,53.552357,10.007322,Hamburg,Hamburg,21.299796094816962,8.777677507975364,4732
519,519,Hamburg-Bergedorf,Schwerin Hbf,1,0.0,206,348.0,106.45992867135824,53.48955,10.206101,53.63563,11.407544,Hamburg,Luebeck,21.311561934066127,49.21229930833745,676
520,520,Hamburg-Harburg,Bremen Hbf,139,13937.0,28634,627.0,103.47042244412742,53.45624,9.991983,53.0835,8.81418,Hamburg,Bremen,19.38516965239259,4.410356804053067,93964
521,521,Hamburg-Harburg,Hamburg Hbf,277,33865.0,57062,354.0,11.849547709002218,53.45627,9.992209,53.55271,10.007025,Hamburg,Hamburg,19.382029194094915,8.735977122900149,187252
522,522,Hamburg-Harburg,Hamburg-Bergedorf,2,0.0,412,137.0,27.11867044656009,53.456177,9.991349,53.48955,10.206101,Hamburg,Hamburg,19.391686949744457,21.311561934066127,1352
523,523,Hamburg-Harburg,Hannover Hbf,82,9882.0,16892,358.0,152.95988856580408,53.456177,9.991349,52.376762,9.741021,Hamburg,Hannover,19.391686949744457,10.127286532088428,55432
524,524,Hamburg-Harburg,Lüneburg,77,9517.0,15862,424.0,38.10247798741015,53.456177,9.991349,53.249535,10.419739,Hamburg,Hamburg,19.391686949744457,51.17622879674875,52052
525,525,Hamburg-Harburg,Osnabrück Hbf,2,260.0,412,455.0,209.15989873980868,53.45624,9.991983,52.272747,8.061333,Hamburg,Munster,19.38516965239259,29.980460844888125,1352
526,526,Hamm(Westf)Hbf,Bielefeld Hbf,82,16120.0,16892,259.0,67.7085497354048,51.67856,7.807896,52.029522,8.533106,Dortmund,Paderborn,22.399238795359018,46.5760856907672,55432
527,527,Hamm(Westf)Hbf,Dortmund Hbf,215,25687.0,44290,298.0,31.177480100294744,51.678474,7.807276,51.517723,7.458775,Dortmund,Dortmund,22.365646050861127,10.65266746827015,145340
528,528,Hamm(Westf)Hbf,Düsseldorf Hbf,2,104.0,412,302.0,100.2343509978413,51.678474,7.807276,51.219963,6.794319,Dortmund,Duesseldorf,22.365646050861127,7.9716335285263815,1352
529,529,Hamm(Westf)Hbf,Gütersloh Hbf,93,11391.0,19158,233.0,50.410938425841216,51.678474,7.807276,51.906822,8.384893,Dortmund,Paderborn,22.365646050861127,36.27735823357615,62868
530,530,Hamm(Westf)Hbf,Hagen Hbf,55,9360.0,11330,267.0,48.70722489374427,51.678474,7.807276,51.36179,7.460302,Dortmund,Dortmund,22.365646050861127,20.366869639799965,37180
531,531,Hamm(Westf)Hbf,Hannover Hbf,2,0.0,412,311.0,176.16592420900992,51.67856,7.807896,52.37734,9.741547,Dortmund,Hannover,22.399238795359018,10.081287114936238,1352
532,532,Hamm(Westf)Hbf,Münster(Westf)Hbf,21,2131.0,4326,430.0,36.083595842897296,51.67856,7.807896,51.95702,7.635446,Dortmund,Munster,22.399238795359018,20.04756831907393,14196
533,533,Hamm(Westf)Hbf,Soest,9,1820.0,1854,336.0,26.842202964165462,51.6785,7.807492,51.57819,8.105337,Dortmund,Dortmund,22.376994533624995,34.84768436687216,6084
534,534,Hamm(Westf)Hbf,Wuppertal Hbf,1,52.0,206,269.0,75.01860157113096,51.678474,7.807276,51.254597,7.150042,Dortmund,Duesseldorf,22.365646050861127,27.026853734939603,676
535,535,Hanau Hbf,Aschaffenburg Hbf,45,4784.0,9270,234.0,23.117841122763107,50.121346,8.928415,49.98065,9.14343,Egelsbach,Egelsbach,27.052742364364295,35.771303992242345,30420
536,536,Hanau Hbf,Frankfurt(Main)Hbf,169,20229.0,34814,488.0,22.802113993014583,50.121346,8.928415,50.106262,8.662941,Egelsbach,Frankfurt,27.052742364364295,10.466541063862747,114244
537,537,Hanau Hbf,Frankfurt(Main)Süd,2,208.0,412,287.0,18.38924499520059,50.121346,8.928415,50.099205,8.685283,Egelsbach,Frankfurt,27.052742364364295,11.00709961554811,1352
538,538,Hanau Hbf,Fulda,90,12071.0,18540,259.0,80.97578215912861,50.121346,8.928415,50.555016,9.683904,Egelsbach,Kassel,27.052742364364295,98.19397942348768,60840
539,539,Hanau Hbf,Göttingen,1,0.0,206,514.0,215.3095715777619,50.121346,8.928415,51.536682,9.926424,Egelsbach,Kassel,27.052742364364295,39.894848319636175,676
540,540,Hanau Hbf,Kassel-Wilhelmshöhe,12,572.0,2472,304.0,170.71147760876752,50.121346,8.928415,51.312435,9.448181,Egelsbach,Kassel,27.052742364364295,12.46701376688958,8112
541,541,Hanau Hbf,Würzburg Hbf,29,4004.0,5974,459.0,101.25504990264886,50.121346,8.928415,49.80213,9.935987,Egelsbach,Nuernberg,27.052742364364295,89.11029762198788,19604
542,542,Hannover Hbf,Berlin Zoologischer Garten,1,0.0,206,389.0,253.80323998867723,52.3777,9.741798,52.50762,13.332927,Hannover,Berlin,10.050800445654758,19.178798735902355,676
543,543,Hannover Hbf,Berlin-Spandau,25,5252.0,5150,199.0,244.81946482899264,52.377796,9.741915,52.534485,13.1971,Hannover,Berlin,10.043997759800355,28.01383266385196,16900
544,544,Hannover Hbf,Bielefeld Hbf,22,2392.0,4532,288.0,108.72823625572867,52.377796,9.741915,52.02962,8.532917,Hannover,Paderborn,10.043997759800355,46.58851285839952,14872
545,545,Hannover Hbf,Braunschweig Hbf,83,8375.0,17098,388.0,61.6163831591916,52.37726,9.74143,52.25223,10.540921,Hannover,Braunschweig,10.086491029663051,7.523471777145977,56108
546,546,Hannover Hbf,Bremen Hbf,11,2343.0,2266,231.0,121.913414342762,52.37726,9.74143,53.083073,8.813611,Hannover,Bremen,10.086491029663051,4.351270064892261,7436
547,547,Hannover Hbf,Bünde(Westf),10,2756.0,2060,224.0,94.46641282392513,52.377613,9.741834,52.20239,8.574419,Hannover,Munster,10.060681304636773,61.33074741454486,6760
548,548,Hannover Hbf,Celle,81,7703.0,16686,354.0,41.04698345946001,52.37726,9.74143,52.620457,10.062468,Hannover,Hannover,10.086491029663051,31.14564232503025,54756
549,549,Hannover Hbf,Frankfurt(Main)Hbf,1,260.0,206,228.0,337.70598568717656,52.376934,9.740981,50.106003,8.663306,Hannover,Frankfurt,10.108525873757078,10.460807995669043,676
550,550,Hannover Hbf,Fulda,1,104.0,206,161.0,233.9116164271263,52.376934,9.740981,50.555016,9.683904,Hannover,Kassel,10.108525873757078,98.19397942348768,676
551,551,Hannover Hbf,Göttingen,347,41393.0,71482,488.0,99.63019182596592,52.3777,9.741798,51.53667,9.925681,Hannover,Kassel,10.050800445654758,39.84573785458115,234572
552,552,Hannover Hbf,Hamburg Hbf,63,10816.0,12978,365.0,164.55057953509964,52.37726,9.74143,53.55271,10.007025,Hannover,Hamburg,10.086491029663051,8.735977122900149,42588
553,553,Hannover Hbf,Hamburg-Harburg,62,8324.0,12772,339.0,153.02473044043293,52.376762,9.741021,53.45627,9.992209,Hannover,Hamburg,10.127286532088428,19.382029194094915,41912
554,554,Hannover Hbf,Hamm(Westf)Hbf,96,16172.0,19776,267.0,176.0943704906313,52.377796,9.741915,51.678474,7.807276,Hannover,Dortmund,10.043997759800355,22.365646050861127,64896
555,555,Hannover Hbf,Herford,2,104.0,412,298.0,95.06052507972952,52.377796,9.741915,52.119453,8.663415,Hannover,Paderborn,10.043997759800355,56.321351677404344,1352
556,556,Hannover Hbf,Langenhagen Mitte,1,260.0,206,245.0,9.993733161840389,52.37715,9.741295,52.440155,9.725539,Hannover,Hannover,10.094331941784702,3.6054273589801062,676
557,557,Hannover Hbf,Lüneburg,11,1509.0,2266,321.0,128.10334534798267,52.37726,9.74143,53.249535,10.419739,Hannover,Hamburg,10.086491029663051,51.17622879674875,7436
558,558,Hannover Hbf,Minden(Westf),164,20747.0,33784,298.0,63.89554285045661,52.377796,9.741915,52.29061,8.934859,Hannover,Hannover,10.043997759800355,54.49927923259166,110864
559,559,Hannover Hbf,Nienburg(Weser),50,5043.0,10300,372.0,55.05612853053916,52.377613,9.741834,52.64541,9.218015,Hannover,Hannover,10.060681304636773,37.7393554917791,33800
560,560,Hannover Hbf,Osnabrück Hbf,3,728.0,618,304.0,132.56850953240718,52.37751,9.741717,52.272697,8.061522,Hannover,Munster,10.06821839439099,29.988716331349988,2028
561,561,Hannover Hbf,Peine,2,572.0,412,219.0,35.77323611625,52.37746,9.74169,52.318916,10.231892,Hannover,Braunschweig,10.072657056024884,22.107322337767577,1352
562,562,Hannover Hbf,Uelzen,2,312.0,412,343.0,93.18794641736096,52.37726,9.74143,52.969612,10.553516,Hannover,Braunschweig,10.086491029663051,72.3778836760835,1352
563,563,Hannover Hbf,Wolfsburg Hbf,105,18824.0,21630,259.0,75.31339999443566,52.37734,9.741547,52.429382,10.787698,Hannover,Braunschweig,10.081287114936238,19.977447248649227,70980
564,564,Hannover Messe/Laatzen,Celle,4,0.0,824,281.0,45.05893519830196,52.3169,9.792863,52.620457,10.062468,Hannover,Hannover,17.644262949070406,31.14564232503025,2704
565,565,Hannover Messe/Laatzen,Frankfurt(Main)Hbf,1,364.0,206,393.0,330.0552303247912,52.316975,9.792607,50.10636,8.662772,Hannover,Frankfurt,17.629426814060658,10.46735221179103,676
566,566,Hannover Messe/Laatzen,Göttingen,7,312.0,1442,348.0,92.4273169612908,52.3169,9.792863,51.536865,9.92561,Hannover,Kassel,17.644262949070406,39.848250676619145,4732
567,567,Hannover Messe/Laatzen,Hamburg-Harburg,1,0.0,206,337.0,160.72634295414798,52.3169,9.792863,53.45627,9.992209,Hannover,Hamburg,17.644262949070406,19.382029194094915,676
568,568,Hannover Messe/Laatzen,Lüneburg,2,0.0,412,314.0,132.11521310590666,52.3169,9.792863,53.249535,10.419739,Hannover,Hamburg,17.644262949070406,51.17622879674875,1352
569,569,Hannover Messe/Laatzen,Nienburg(Weser),1,0.0,206,341.0,62.98471203994581,52.3169,9.792863,52.64541,9.218015,Hannover,Hannover,17.644262949070406,37.7393554917791,676
570,570,Hannover Messe/Laatzen,Wolfsburg Hbf,11,156.0,2266,273.0,76.88328340219873,52.317005,9.792903,52.429382,10.787698,Hannover,Braunschweig,17.634768059913707,19.977447248649227,7436
571,571,Hannover-Linden/Fischerhof,Braunschweig Hbf,27,4940.0,5562,333.0,63.95725479970981,52.35257,9.723688,52.25223,10.540921,Hannover,Braunschweig,12.359363107910658,7.523471777145977,18252
572,572,Hannover-Linden/Fischerhof,Nienburg(Weser),1,104.0,206,291.0,56.8515990790883,52.352795,9.722646,52.64541,9.218015,Hannover,Hannover,12.319988493993073,37.7393554917791,676
573,573,Hannover-Linden/Fischerhof,Peine,3,676.0,618,238.0,38.114107756768206,52.35257,9.723688,52.318916,10.231892,Hannover,Braunschweig,12.359363107910658,22.107322337767577,2028
574,574,Hannover-Linden/Fischerhof,Wunstorf,27,5044.0,5562,304.0,23.066643405801464,52.352795,9.722646,52.422367,9.451418,Hannover,Hannover,12.319988493993073,16.463212929514707,18252
