,stop_name,next_stop_name,Unnamed: 0,trip_id,stop_id,stop_sequence,route_short_name,next_stop_id,totalTripTime,osm_distance,OriginLat,OriginLon,DestLat,DestLon
0,Aachen Hbf,Aachen Süd(Gr),40483,2109,175106,3,ICE 79,566222.0,102.0,3.0883503971866166,50.7678,6.091499,50.731915,6.04541
1,Aachen Hbf,Düren,40167,151439,175106,0,ICE 14,104569.0,348.0,30.866346398123,50.7678,6.091499,50.809517,6.482451
2,Aachen Hbf,Herzogenrath,40216,368508,175106,0,ICE 14,49087.0,316.0,15.453692146497769,50.7678,6.091499,50.870914,6.094486
3,Aachen Hbf,Köln Hbf,40608,75587,175106,4,ICE 79,125814.0,107.0,76.61925241299436,50.7678,6.091499,50.94303,6.958729
4,Aachen Süd(Gr),Aachen Hbf,40607,75587,566222,3,ICE 79,175106.0,107.0,3.088350397186616,50.731915,6.04541,50.7678,6.091499
5,Aalen Hbf,Ellwangen,22651,42716,521377,3,IC 61,406498.0,126.0,15.50292858709716,48.84168,10.09613,48.96439,10.129664
6,Aalen Hbf,Schwäbisch Gmünd,22442,11312,521377,4,IC 61,134511.0,175.0,26.020752365756906,48.84168,10.09613,48.80097,9.787504
7,Altena(Westf),Letmathe,2364,142446,328424,8,IC 34,70107.0,99.0,8.71335774521884,51.302013,7.668693,51.362785,7.61801
8,Altena(Westf),Werdohl,2454,24344,234575,3,IC 34,464364.0,192.0,9.53697506264792,51.301956,7.668576,51.259476,7.757887
9,Altenbeken,Kassel-Wilhelmshöhe,18989,605324,85092,10,IC 51,622425.0,301.0,88.24681653799688,51.766296,8.94298,51.312435,9.448181
10,Altenbeken,Paderborn Hbf,18946,341138,85092,7,IC 51,468841.0,300.0,17.325860779482234,51.766296,8.94298,51.71298,8.740505
11,Altenbeken,Warburg(Westf),18916,200842,85092,11,IC 51,217160.0,336.0,37.048710509209485,51.766296,8.94298,51.49288,9.164163
12,Andernach,Koblenz Hbf,30426,448212,304313,22,IC 55,333033.0,439.0,17.83252446277699,50.434544,7.404839,50.35093,7.588345
13,Andernach,Remagen,29800,163320,304313,1,IC 55,643257.0,448.0,20.54125150722777,50.434544,7.404839,50.577213,7.229779
14,Angermünde,Eberswalde Hbf,18588,66146,288158,8,ICE 15,338801.0,423.0,25.602792377838647,53.01574,13.995672,52.833805,13.796755
15,Angermünde,Pasewalk,18498,529845,246924,9,ICE 15,256731.0,332.0,62.79088322716178,53.015793,13.995908,53.51519,13.988988
16,Angermünde,Prenzlau,18364,227524,246924,14,ICE 15,236141.0,567.0,39.53173811507827,53.015793,13.995908,53.32162,13.86654
17,Anklam,Pasewalk,18585,66146,133130,5,ICE 15,59346.0,423.0,42.86674655607924,53.85625,13.701518,53.515354,13.988875
18,Anklam,Züssow,18367,227524,218337,17,ICE 15,640306.0,567.0,16.586847141684455,53.8563,13.701554,53.972515,13.550179
19,Ansbach,Crailsheim,22439,11312,635872,1,IC 61,582256.0,175.0,46.97769554798477,49.29889,10.577582,49.138126,10.064572
20,Ansbach Bahnhof,Nürnberg Hbf,22654,42716,594107,6,IC 61,153978.0,126.0,43.67732192969221,49.299145,10.578166,49.44801,11.082327
21,Ansbach Bahnhof,Steinach(bei Rothenburg ob der Tauber),36427,550619,248388,10,IC 24,219233.0,449.0,32.33492987285697,49.299046,10.578031,49.453003,10.274113
22,Ansbach Bahnhof,Treuchtlingen,37893,114298,549297,9,ICE 24,651872.0,420.0,51.48035109260355,49.299004,10.578067,48.96105,10.907919
23,Ansbach Bahnhof,Würzburg Hbf,38363,877333,248388,11,ICE 24,129201.0,485.0,89.3801647687285,49.299046,10.578031,49.80226,9.936041
24,Aschaffenburg Hbf,Frankfurt(Main)Hbf,16205,2305,111809,2,ICE 41,463665.0,229.0,45.91930597514256,49.980797,9.14343,50.1062,8.663011
25,Aschaffenburg Hbf,Frankfurt(Main)Süd,17279,72577,111809,3,ICE 41,273266.0,306.0,41.506192614582645,49.980797,9.14343,50.099205,8.685283
26,Aschaffenburg Hbf,Fulda,3385,1500027,238166,9,ICE 12,543565.0,559.0,100.79531371331112,49.980556,9.143697,50.555016,9.683904
27,Aschaffenburg Hbf,Hanau Hbf,32370,116386,111809,5,ICE 91,586880.0,244.0,23.117841122763107,49.980797,9.14343,50.121346,8.928415
28,Aschaffenburg Hbf,Würzburg Hbf,16117,18399,588574,8,ICE 41,376538.0,255.0,78.1747444871136,49.98065,9.14343,49.802,9.935924
29,Augsburg Hbf,Ansbach Bahnhof,38005,1294391,644766,1,ICE 24,248388.0,365.0,127.56535009781228,48.365673,10.885892,49.299046,10.578031
30,Augsburg Hbf,Donauwörth,22067,49178,644766,2,ICE 18,29233.0,284.0,41.55209544583551,48.365673,10.885892,48.71413,10.771654
31,Augsburg Hbf,Günzburg,23005,11567,644766,2,ICE 11,250154.0,199.0,61.01632193101428,48.365673,10.885892,48.460575,10.279224
32,Augsburg Hbf,München Hbf,37896,114298,232820,12,ICE 24,36165.0,420.0,61.72233237076584,48.3656,10.885713,48.13994,11.557491
33,Augsburg Hbf,München Ost,21422,220176,232820,10,ICE 89,466399.0,409.0,66.68662722419582,48.3656,10.885713,48.127304,11.605533
34,Augsburg Hbf,Nürnberg Hbf,13830,241173,232820,1,ICE 25,656568.0,462.0,137.95002615020806,48.3656,10.885713,49.44541,11.082291
35,Augsburg Hbf,Pasing,12137,5903,232820,11,ICE 47,343720.0,309.0,54.24459311874946,48.3656,10.885713,48.149197,11.459296
36,Augsburg Hbf,Ulm Hbf,7073,28736,644766,2,ICE 42,320992.0,488.0,85.17346877241476,48.365673,10.885892,48.399345,9.982933
37,Augsburg Hbf,Würzburg Hbf,21444,80172,578414,3,ICE 89,376538.0,412.0,216.1839308313235,48.365532,10.885533,49.802,9.935924
38,Augustfehn,Leer(Ostfriesl),20551,3827,473921,16,IC 56,133077.0,304.0,23.11485665504408,53.220943,7.759614,53.231438,7.46537
39,Augustfehn,Westerstede-Ocholt,20674,4360,158352,6,IC 56,143014.0,333.0,8.323085860722019,53.220844,7.75963,53.202248,7.886519
40,Bad Bentheim,Bad Bentheim(Gr),41882,87697,180734,7,IC 77,259956.0,224.0,8.275775953749875,52.309853,7.157776,52.3091,7.04016
41,Bad Bentheim,Rheine,41853,80464,100840,2,IC 77,369247.0,213.0,21.551672066073245,52.30978,7.157785,52.275837,7.434987
42,Bad Bentheim(Gr),Bad Bentheim,41852,80464,259956,1,IC 77,100840.0,213.0,8.275775953749871,52.3091,7.04016,52.30978,7.157785
43,Bad Bevensen,Lüneburg,37233,334682,33275,3,ICE 26,618982.0,260.0,22.306266423525678,53.078274,10.574201,53.249535,10.419739
44,Bad Bevensen,Uelzen,38172,236847,89309,5,ICE 24,285305.0,159.0,12.788862321087624,53.07822,10.574081,52.969658,10.553415
45,Bad Endorf,Prien Prien Bahnhof,31926,211206,456439,12,IC 62,12196.0,305.0,10.032223641790694,47.90459,12.302679,47.85454,12.346697
46,"Bad Endorf, Bahnhof",Rosenheim,36420,550619,507883,3,IC 24,554137.0,449.0,17.25950175173233,47.904682,12.302545,47.850994,12.118372
47,Bad Hersfeld,Eisenach Hbf,24639,140114,294008,4,ICE 50,456782.0,288.0,55.17765812449147,50.869633,9.716182,50.975952,10.331229
48,Bad Hersfeld,Fulda,25014,71214,294008,7,ICE 50,543565.0,297.0,42.44413853398312,50.869633,9.716182,50.555016,9.683904
49,Bad Kleinen,Bützow,28416,19898,93455,8,IC 57,207188.0,235.0,40.79687836147904,53.766644,11.466456,53.83715,11.998132
50,Bad Kleinen,Schwerin Hbf,38151,205422,143944,2,ICE 24,166260.0,368.0,16.278969153006987,53.766945,11.466213,53.635628,11.407445
51,Bad Nauheim,Frankfurt(Main)Hbf,2396,1488321,345757,3,IC 34,465515.0,91.0,38.86895322592013,50.367695,8.749241,50.10662,8.662561
52,Bad Nauheim,Frankfurt(Main)West,2465,24344,345757,14,IC 34,38436.0,192.0,35.526282408536254,50.367695,8.749241,50.11939,8.638952
53,Bad Nauheim,Wetzlar,2417,162550,345757,2,IC 34,101076.0,226.0,36.80720534525148,50.367695,8.749241,50.56566,8.504213
54,Bad Oeynhausen,Bielefeld Hbf,30286,41213,397775,2,IC 55,597977.0,407.0,30.41702821223481,52.205322,8.795944,52.02962,8.532917
55,Bad Oeynhausen,Herford,29971,249194,397775,2,IC 55,513363.0,107.0,16.749317036235663,52.205322,8.795944,52.119453,8.663415
56,Bad Oeynhausen,Minden(Westf),30345,43799,237515,3,IC 55,503183.0,388.0,14.420084936882114,52.205257,8.795962,52.290154,8.934859
57,Bad Schandau,Dresden Hbf,43507,92783,500754,2,EC 27,457631.0,128.0,40.43877109517942,50.919315,14.137713,51.040684,13.731863
58,Bad Zwischenahn,Oldenburg(Oldb)Hbf,20676,4360,482548,8,IC 56,106284.0,333.0,15.434266195519744,53.182713,8.002593,53.14432,8.222713
59,Bad Zwischenahn,Westerstede-Ocholt,20549,3827,482548,14,IC 56,143014.0,304.0,7.760410870885606,53.182713,8.002593,53.202248,7.886519
60,Baden-Baden,Freiburg(Breisgau) Hbf,41117,23495,55182,10,EC 43,536141.0,351.0,102.58766463500552,48.790478,8.190417,47.997765,7.841295
61,Baden-Baden,Karlsruhe Hbf,35903,7405,563953,3,ICE 20,482437.0,365.0,28.98046130497089,48.79032,8.190731,48.993675,8.401116
62,Baden-Baden,Offenburg,3691,2771,55182,13,ICE 12,265599.0,488.0,39.91969555163772,48.790478,8.190417,48.476475,7.946723
63,"Bahnhof, Engen",Singen(Hohentwiel),39787,5139,361072,10,IC 87,560019.0,98.0,14.310965577573628,47.85621,8.772516,47.75892,8.841381
64,"Bahnhof, Friedberg (Hessen)",Frankfurt(Main)Hbf,37302,38835,444166,20,ICE 26,129296.0,468.0,33.59683719547543,50.33204,8.760561,50.10652,8.662645
65,"Bahnhof, Friedberg (Hessen)",Frankfurt(Main)West,36902,12659,444166,7,ICE 26,38436.0,181.0,30.25376384949328,50.33204,8.760561,50.11939,8.638952
66,"Bahnhof, Friedberg (Hessen)",Gießen,32190,9459,444166,1,IC 26,149948.0,262.0,32.91707710273548,50.33204,8.760561,50.579884,8.663799
67,Bamberg,Coburg,34374,76763,378280,2,ICE 28,33094.0,326.0,44.97602680676421,49.900574,10.900122,50.263447,10.957201
68,Bamberg,Erlangen,22238,71196,590855,10,ICE 18,173118.0,366.0,38.69971322416879,49.900597,10.899735,49.596157,11.001488
69,Bamberg,Hauptbahnhof,34254,5768,378280,3,ICE 28,356159.0,286.0,128.3188863494855,49.900574,10.900122,50.97211,11.037261
70,Bamberg,Lichtenfels Bahnhof,38919,11735,378280,7,IC 17,397048.0,426.0,32.02448385238354,49.900574,10.900122,50.146103,11.06039
71,Bamberg,Nürnberg Hbf,22004,38055,590855,11,ICE 18,152972.0,463.0,62.31758868375399,49.900597,10.899735,49.445545,11.082228
72,Bebra,Eisenach Hbf,18991,605324,613730,12,IC 51,456782.0,301.0,45.0279614122691,50.969566,9.797788,50.975952,10.331229
73,Bebra,Kassel-Wilhelmshöhe,18937,260007,613730,9,IC 51,622425.0,158.0,54.13146110836984,50.969566,9.797788,51.312435,9.448181
74,Bensheim,Darmstadt Hbf,37990,12810,157839,2,ICE 24,504087.0,355.0,22.695223476732597,49.68174,8.616901,49.87304,8.629164
75,Bensheim,Heidelberg Hbf,18322,1485637,394155,12,ICE 15,374089.0,508.0,37.86022032697166,49.681423,8.616721,49.40357,8.675442
76,Bensheim,Mannheim Hbf,18390,259989,394155,12,ICE 15,486826.0,493.0,37.85870426878033,49.681423,8.616721,49.47923,8.470026
77,Bensheim,Weinheim(Bergstr)Hbf,31888,134605,394155,2,IC 62,364388.0,100.0,14.838959958629273,49.681423,8.616721,49.55361,8.665401
78,Bergen auf Rügen,Ostseebad Binz,37351,45562,264170,12,ICE 26,182205.0,283.0,22.99857372708285,54.42034,13.417668,54.405552,13.599532
79,Bergen auf Rügen,Stralsund Hbf,37283,38835,401960,1,ICE 26,381649.0,468.0,29.351335148654588,54.420414,13.417534,54.308075,13.078294
80,Berlin Gesundbrunnen,Berlin Hbf,43063,7048,413757,0,ICE 29,220637.0,238.0,12.01793482570385,52.54869,13.390501,52.524998,13.369061
81,Berlin Gesundbrunnen,Berlin Ostkreuz,38834,1024931,400896,3,IC 17,16426.0,252.0,12.118371700972348,52.548573,13.390519,52.503128,13.469622
82,Berlin Gesundbrunnen,Berlin-Lichtenberg,12614,23461,400896,0,EC 96,301957.0,65.0,10.240294800180592,52.548573,13.390519,52.510277,13.497433
83,Berlin Gesundbrunnen,Berlin-Spandau,41570,149205,400896,0,IC 77,588194.0,219.0,21.45053235142262,52.548573,13.390519,52.5346,13.197163
84,Berlin Gesundbrunnen,Bernau(b Berlin),43655,229933,342403,1,ICE 21,246848.0,197.0,20.49774167342605,52.548386,13.390704,52.67533,13.592016
85,Berlin Gesundbrunnen,Eberswalde Hbf,18362,227524,400896,12,ICE 15,551066.0,567.0,43.04893612107019,52.548573,13.390519,52.83376,13.796866
86,Berlin Gesundbrunnen,Schwerin Hbf,39057,290320,413757,6,IC 17,517674.0,265.0,216.23446773788856,52.54869,13.390501,53.63563,11.407544
87,Berlin Hbf,Berlin Gesundbrunnen,38930,11735,190233,18,IC 17,342403.0,426.0,12.017934825703849,52.52519,13.369752,52.548386,13.390704
88,Berlin Hbf,Berlin Ostbahnhof,34259,5768,561143,8,ICE 28,463960.0,286.0,16.8955470738039,52.524788,13.369667,52.510254,13.435024
89,Berlin Hbf,Berlin Südkreuz,43064,7048,220637,1,ICE 29,605755.0,238.0,8.635850139898729,52.524998,13.369061,52.475925,13.365291
90,Berlin Hbf,Berlin Zoologischer Garten,3679,2771,147175,1,ICE 12,231593.0,488.0,15.212205745665775,52.52511,13.369472,52.50768,13.332686
91,Berlin Hbf,Berlin-Charlottenburg,42674,191663,200540,3,ICE 27,384927.0,197.0,12.920031790925442,52.524967,13.369527,52.504173,13.301819
92,Berlin Hbf,Berlin-Spandau,42968,3616,66821,3,ICE 29,65641.0,336.0,12.865009409666456,52.525143,13.369612,52.534668,13.197191
93,Berlin Hbf,Berlin-Wannsee,20492,359808,200540,1,IC 56,427661.0,329.0,22.577680678465697,52.524967,13.369527,52.421402,13.180358
94,Berlin Hbf,Hamburg Hbf,34344,752057,190233,4,ICE 28,500722.0,224.0,285.80933712847184,52.52519,13.369752,53.55252,10.007353
95,Berlin Hbf,Schwerin Hbf,38847,103059,190233,6,IC 17,517674.0,262.0,207.6489447961324,52.52519,13.369752,53.63563,11.407544
96,Berlin Ostbahnhof,Berlin Hbf,3678,2771,651629,0,ICE 12,147175.0,488.0,16.8955470738039,52.510414,13.435172,52.52511,13.369472
97,Berlin Ostbahnhof,Berlin Ostkreuz,21340,96875,299861,21,IC 56,391715.0,378.0,3.6122181565580425,52.510178,13.434942,52.502907,13.468553
98,Berlin Ostbahnhof,Dresden-Neustadt,43344,248869,542375,9,EC 27,651231.0,328.0,184.98514825420511,52.510242,13.434586,51.066097,13.740235
99,Berlin Ostbahnhof,Frankfurt(Oder),36337,254908,542375,1,EC 95,265905.0,54.0,80.78327589908324,52.510242,13.434586,52.336563,14.545988
100,Berlin Ostkreuz,Berlin Gesundbrunnen,39056,290320,283561,5,IC 17,413757.0,265.0,12.118371700972345,52.503067,13.469961,52.54869,13.390501
101,Berlin Ostkreuz,Berlin Hbf,42673,191663,572319,2,ICE 27,200540.0,197.0,13.28332891724586,52.50304,13.468615,52.524967,13.369527
102,Berlin Ostkreuz,Berlin Ostbahnhof,36316,154660,572319,3,EC 95,651629.0,59.0,3.612218156558042,52.50304,13.468615,52.510414,13.435172
103,Berlin Ostkreuz,Berlin-Lichtenberg,39095,392356,283561,7,IC 17,558943.0,166.0,3.3512238100070597,52.503067,13.469961,52.510002,13.49649
104,Berlin Ostkreuz,Flughafen BER,39071,36159,16426,1,IC 17,131752.0,101.0,26.084396820545813,52.503128,13.469622,52.364323,13.509145
105,Berlin Ostkreuz,Frankfurt(Oder),36354,433053,391715,2,EC 95,265905.0,55.0,81.30681974823115,52.502907,13.468553,52.336563,14.545988
106,Berlin Ostkreuz,S Königs Wusterhausen Bhf,21341,96875,391715,22,IC 56,582262.0,378.0,27.31260608245007,52.502907,13.468553,52.296642,13.631479
107,Berlin Südkreuz,Berlin Hbf,42967,3616,622546,2,ICE 29,66821.0,336.0,8.417619772718078,52.475407,13.365754,52.525143,13.369612
108,Berlin Südkreuz,Bitterfeld,22000,38055,605755,7,ICE 18,304607.0,463.0,129.94587345692145,52.475925,13.365291,51.62286,12.31685
109,Berlin Südkreuz,Chemnitz Hbf,38943,1280551,436758,2,IC 17,634572.0,165.0,208.33967566493385,52.475887,13.365455,50.839695,12.930877
110,Berlin Südkreuz,Doberlug-Kirchhain,42695,473271,541803,1,ICE 27,666623.0,108.0,113.59751505318714,52.475433,13.365603,51.62053,13.564161
111,Berlin Südkreuz,Dresden-Neustadt,43435,58224,605755,7,EC 27,651231.0,258.0,186.39743244676225,52.475925,13.365291,51.066097,13.740235
112,Berlin Südkreuz,Flughafen BER,39181,63048,605755,2,IC 17,152814.0,108.0,28.952257307207173,52.475925,13.365291,52.36424,13.509191
113,Berlin Südkreuz,Halle(Saale)Hbf,43065,7048,605755,2,ICE 29,199582.0,238.0,159.59570002344324,52.475925,13.365291,51.47751,11.987085
114,Berlin Südkreuz,Leipzig Hbf,43120,919187,177624,2,ICE 29,233006.0,288.0,164.23355543556443,52.475685,13.365454,51.34547,12.382064
115,Berlin Südkreuz,Lutherstadt Wittenberg Hbf,34174,43883,177624,5,ICE 28,481287.0,290.0,92.70385697126764,52.475685,13.365454,51.86781,12.662285
116,Berlin Südkreuz,Nürnberg Hbf,42891,230165,177624,1,ICE 29,656568.0,225.0,442.1825537400922,52.475685,13.365454,49.44541,11.082291
117,Berlin Südkreuz,Schönefeld(bei Berlin),43193,1215402,541803,9,EC 27,162009.0,231.0,20.83106587536704,52.475433,13.365603,52.39115,13.512816
118,Berlin Zoologischer Garten,Berlin Hbf,34258,5768,535633,7,ICE 28,561143.0,286.0,15.21220574566578,52.50762,13.332927,52.524788,13.369667
119,Berlin Zoologischer Garten,Berlin-Charlottenburg,36319,154660,231593,6,EC 95,384927.0,59.0,2.292173954740335,52.50768,13.332686,52.504173,13.301819
120,Berlin Zoologischer Garten,Berlin-Spandau,3680,2771,231593,2,ICE 12,588194.0,488.0,11.780238985741413,52.50768,13.332686,52.5346,13.197163
121,Berlin Zoologischer Garten,Berlin-Wannsee,27226,89188,117277,2,ICE 43,427661.0,534.0,14.997575030622412,52.507717,13.332555,52.421402,13.180358
122,Berlin Zoologischer Garten,Braunschweig Hbf,25527,1222092,117277,2,ICE 43,331031.0,429.0,212.25739445504064,52.507717,13.332555,52.25227,10.54085
123,Berlin Zoologischer Garten,Stendal Hbf,20781,49329,231593,2,IC 56,627546.0,293.0,103.71421120548624,52.50768,13.332686,52.594723,11.854412
124,Berlin-Lichtenberg,Berlin Gesundbrunnen,36342,35741,558943,3,EC 95,400896.0,75.0,10.174606590949482,52.510002,13.49649,52.548573,13.390519
125,Berlin-Lichtenberg,Berlin Ostkreuz,39070,36159,381259,0,IC 17,16426.0,101.0,3.3512238100070597,52.510124,13.496304,52.503128,13.469622
126,Berlin-Lichtenberg,Frankfurt(Oder),12615,23461,301957,1,EC 96,265905.0,65.0,79.49243290232371,52.510277,13.497433,52.336563,14.545988
127,Berlin-Spandau,Berlin Gesundbrunnen,41858,80464,402735,7,IC 77,400896.0,213.0,21.450532351422616,52.534542,13.197124,52.548573,13.390519
128,Berlin-Spandau,Berlin Hbf,5078,12227,341415,10,ICE 13,147175.0,259.0,12.865009409666458,52.534485,13.1971,52.52511,13.369472
129,Berlin-Spandau,Berlin Zoologischer Garten,5526,80615,341415,9,ICE 13,665317.0,286.0,11.780238985741407,52.534485,13.1971,52.507652,13.332804
130,Berlin-Spandau,Frankfurt(Main)Hbf,36586,790909,588194,2,ICE 16,60152.0,247.0,524.1757375041868,52.5346,13.197163,50.1063,8.662814
131,Berlin-Spandau,Frankfurt(Main)Süd,28609,427353,588194,2,ICE 82,305162.0,318.0,519.7630717368703,52.5346,13.197163,50.099003,8.686179
132,Berlin-Spandau,Hamburg Hbf,42969,3616,65641,4,ICE 29,500722.0,336.0,275.23638001500063,52.534668,13.197191,53.55252,10.007353
133,Berlin-Spandau,Hamburg-Bergedorf,22285,788153,65641,11,ICE 18,515323.0,377.0,259.39006018370776,52.534668,13.197191,53.48963,10.205985
134,Berlin-Spandau,Hannover Hbf,41877,87697,588194,2,IC 77,43645.0,224.0,244.38752147943924,52.5346,13.197163,52.377613,9.741834
135,Berlin-Spandau,Hannover Messe/Laatzen,36507,563718,588194,2,ICE 16,619095.0,393.0,245.9574048872024,52.5346,13.197163,52.316975,9.792607
136,Berlin-Spandau,Ludwigslust,12756,161217,65641,2,IC 29,281299.0,132.0,160.34532722095776,52.534668,13.197191,53.334885,11.49398
137,Berlin-Spandau,Salzwedel,33967,154076,65641,9,ICE 28,432031.0,413.0,151.18202121858823,52.534668,13.197191,52.858112,11.162035
138,Berlin-Spandau,Stendal Hbf,3681,2771,588194,3,ICE 12,627546.0,488.0,94.2984926962484,52.5346,13.197163,52.594723,11.854412
139,Berlin-Spandau,Wittenberge,18402,29414,65641,6,ICE 15,661034.0,377.0,117.15553932714576,52.534668,13.197191,53.004498,11.762504
140,Berlin-Spandau,Wolfsburg Hbf,3543,20163,588194,2,ICE 12,330639.0,371.0,169.5671455114713,52.5346,13.197163,52.429665,10.787913
141,Berlin-Spandau,Wunstorf,41470,129529,588194,2,IC 77,128479.0,231.0,265.62429765192405,52.5346,13.197163,52.42213,9.450977
142,Berlin-Wannsee,Berlin Gesundbrunnen,20720,476897,118054,13,IC 56,400896.0,264.0,24.99692625663201,52.42135,13.180446,52.548573,13.390519
143,Berlin-Wannsee,Berlin Hbf,19797,12722,118054,21,IC 56,552542.0,349.0,22.577680678465697,52.42135,13.180446,52.52488,13.369627
144,Berlin-Wannsee,Berlin Zoologischer Garten,21337,96875,118054,18,IC 56,665317.0,378.0,14.99757503062241,52.42135,13.180446,52.507652,13.332804
145,Berlin-Wannsee,Potsdam Hbf,27227,89188,427661,3,ICE 43,303875.0,534.0,9.580766179785234,52.421402,13.180358,52.391666,13.066749
146,Bernau(b Berlin),Berlin Gesundbrunnen,33739,123512,481464,10,ICE 28,604391.0,207.0,20.49774167342604,52.675426,13.591859,52.548885,13.39039
147,Bernau(b Berlin),Eberswalde Hbf,43656,229933,246848,2,ICE 21,551066.0,197.0,23.317435517186063,52.67533,13.592016,52.83376,13.796866
148,Biberach(Riß),Ravensburg,24372,696151,463120,12,ICE 32,573482.0,426.0,47.3121557776707,48.101936,9.792939,47.78441,9.605964
149,Biberach(Riß),Ulm Hbf,24335,486486,324821,3,ICE 32,520479.0,439.0,37.32619619462959,48.101994,9.793155,48.399345,9.982816
150,Bielefeld Hbf,Bad Oeynhausen,25464,1171323,371277,11,ICE 43,237515.0,273.0,30.417028212234808,52.029522,8.533106,52.205257,8.795962
151,Bielefeld Hbf,Dortmund Hbf,10326,45076,597977,6,ICE 10,387211.0,256.0,98.34963080494964,52.02962,8.532917,51.517883,7.458721
152,Bielefeld Hbf,Gütersloh Hbf,9714,23485,597977,7,ICE 10,634354.0,298.0,17.779144717628583,52.02962,8.532917,51.90686,8.38483
153,Bielefeld Hbf,Hamm(Westf)Hbf,10417,491824,597977,5,ICE 10,185544.0,268.0,67.70854973540479,52.02962,8.532917,51.678474,7.807276
154,Bielefeld Hbf,Hannover Hbf,10095,37945,371277,4,ICE 10,286285.0,259.0,108.7997899741074,52.029522,8.533106,52.37734,9.741547
155,Bielefeld Hbf,Herford,31099,76081,371277,9,IC 55,157832.0,233.0,13.667711175999152,52.029522,8.533106,52.119358,8.663667
156,Bielefeld Hbf,Minden(Westf),26106,155663,371277,18,ICE 43,503183.0,513.0,44.832693405272096,52.029522,8.533106,52.290154,8.934859
157,Bingen(Rhein) Hbf,Koblenz Hbf,1193,656102,303765,3,ICE 39,333033.0,422.0,60.69144599097663,49.969147,7.882717,50.35093,7.588345
158,Bingen(Rhein) Hbf,Mainz Hbf,1855,99424,303765,9,ICE 39,149884.0,495.0,31.559804317282904,49.969147,7.882717,50.001118,8.25872
159,Bitterfeld,Berlin Südkreuz,22074,49178,304607,9,ICE 18,622546.0,284.0,129.7276430897408,51.62286,12.31685,52.475407,13.365754
160,Bitterfeld,Berlin Zoologischer Garten,34257,5768,304607,6,ICE 28,535633.0,286.0,139.53573172340606,51.62286,12.31685,52.50762,13.332927
161,Bitterfeld,Dessau Hbf,20744,4822,304607,4,IC 56,210810.0,372.0,25.88425798838484,51.62286,12.31685,51.839867,12.234945
162,Bitterfeld,Halle(Saale)Hbf,22001,38055,304607,8,ICE 18,199582.0,463.0,29.65231906565077,51.62286,12.31685,51.47751,11.987085
163,Bitterfeld,Hauptbahnhof,24154,929419,304607,7,ICE 11,356159.0,637.0,121.64478692832056,51.62286,12.31685,50.97211,11.037261
164,Bitterfeld,Leipzig Hbf,30352,43799,304607,10,IC 55,233006.0,388.0,34.294199789060066,51.62286,12.31685,51.34547,12.382064
165,Bitterfeld,Lutherstadt Wittenberg Hbf,38927,11735,304607,15,IC 17,481287.0,426.0,38.1787902842579,51.62286,12.31685,51.86781,12.662285
166,Bochum Hbf,Dortmund Hbf,15736,13061,37199,14,ICE 41,390698.0,348.0,18.79385412870331,51.478394,7.222859,51.517723,7.458775
167,Bochum Hbf,Essen Hbf,12127,5903,156853,1,ICE 47,354742.0,309.0,15.681075773250006,51.47853,7.222715,51.45159,7.013956
168,Bondorf(b Herrenberg),Ergenzingen,39940,79678,358550,4,IC 87,640560.0,94.0,5.974955577880717,48.52328,8.827735,48.489243,8.809751
169,Bondorf(b Herrenberg),Eutingen im Gäu,39603,247965,358550,4,IC 87,400850.0,119.0,7.204615666489185,48.52328,8.827735,48.479736,8.782361
170,Bondorf(b Herrenberg),Gäufelden,39594,245,8955,8,IC 87,455718.0,118.0,8.002143640473012,48.52329,8.827852,48.559704,8.850157
171,Bondorf(b Herrenberg),Horb,39780,5139,358550,3,IC 87,132445.0,98.0,16.858885398466516,48.52328,8.827735,48.441597,8.688775
172,Bonn Hbf,Koblenz Hbf,30807,58231,89956,20,IC 55,333033.0,585.0,59.040278698176,50.731834,7.097284,50.35093,7.588345
173,Bonn Hbf,Köln Hbf,1181,64738,378779,10,ICE 39,440409.0,612.0,33.23060469229649,50.731956,7.097364,50.9433,6.958485
174,Bonn Hbf,Remagen,30424,448212,89956,20,IC 55,643257.0,439.0,20.669768506090467,50.731834,7.097284,50.577213,7.229779
175,Bonn-Beuel,Koblenz Hbf,30295,41213,345578,11,IC 55,333033.0,407.0,60.005833791902255,50.738205,7.127862,50.35093,7.588345
176,Bonn-Beuel,Köln Hbf,31194,785341,536100,6,IC 55,125814.0,246.0,48.38545290512119,50.737896,7.12815,50.94303,6.958729
177,Bonn-Beuel,Köln Messe/Deutz Gl.11-12,31091,76081,536100,1,IC 55,427014.0,233.0,30.40036501467555,50.737896,7.12815,50.9416,6.973954
178,Bonn-Beuel,Mainz Hbf,41113,23495,345578,6,EC 43,149884.0,351.0,151.5815829989208,50.738205,7.127862,50.001118,8.25872
179,Bonn-Beuel,Solingen Hbf,29878,179610,536100,5,IC 55,117724.0,277.0,53.4057445707918,50.737896,7.12815,51.161083,7.004119
180,Boppard Hbf,Koblenz Hbf,30138,334767,117790,3,IC 55,333033.0,511.0,19.70535189863492,50.231415,7.586102,50.35093,7.588345
181,Brandenburg Hbf,Braunschweig Hbf,26300,251166,107204,5,ICE 43,331031.0,461.0,164.32146945295938,52.400276,12.565075,52.25227,10.54085
182,Brandenburg Hbf,Magdeburg Hbf,27229,89188,107204,5,ICE 43,105607.0,534.0,81.3696954032589,52.400276,12.565075,52.130512,11.626963
183,Brandenburg Hbf,Potsdam Hbf,19795,12722,298413,19,IC 56,166464.0,349.0,35.0519709153609,52.40021,12.565134,52.391422,13.066721
184,Braunschweig Hbf,Brandenburg Hbf,26845,641518,406072,16,ICE 43,298413.0,455.0,164.58896642130836,52.25223,10.540921,52.40021,12.565134
185,Braunschweig Hbf,Hannover Hbf,20747,4822,331031,7,IC 56,43645.0,372.0,61.61638315919157,52.25227,10.54085,52.377613,9.741834
186,Braunschweig Hbf,Hannover-Linden/Fischerhof,20540,3827,331031,5,IC 56,594545.0,304.0,64.03721142629193,52.25227,10.54085,52.352795,9.722646
187,Braunschweig Hbf,Helmstedt,20685,4360,406072,17,IC 56,242101.0,333.0,36.08132021685108,52.25223,10.540921,52.22181,11.010192
188,Braunschweig Hbf,Hildesheim Hbf,3545,20163,331031,4,ICE 12,60578.0,371.0,42.83072302450309,52.25227,10.54085,52.160275,9.952633
189,Braunschweig Hbf,Magdeburg Hbf,31824,98589,406072,14,IC 55,105607.0,470.0,83.42178014369932,52.25223,10.540921,52.130512,11.626963
190,Braunschweig Hbf,Peine,20290,198641,331031,2,IC 56,609551.0,239.0,26.032005761353933,52.25227,10.54085,52.31896,10.232197
191,Braunschweig Hbf,Potsdam Hbf,20810,514260,406072,14,IC 56,166464.0,409.0,198.81671657859144,52.25223,10.540921,52.391422,13.066721
192,Braunschweig Hbf,Stendal Hbf,20608,400023,406072,8,IC 56,627546.0,254.0,108.54472562175296,52.25223,10.540921,52.594723,11.854412
193,Braunschweig Hbf,Wolfsburg Hbf,5075,12227,406072,7,ICE 13,402576.0,259.0,33.76755446079908,52.25223,10.540921,52.429382,10.787698
194,Bremen Hbf,Delmenhorst,20545,3827,158195,10,IC 56,15104.0,304.0,13.203442034300815,53.083073,8.813611,53.05279,8.629758
195,Bremen Hbf,Diepholz,41143,34419,307223,4,EC 43,98440.0,518.0,69.73943331354822,53.0835,8.81418,52.604637,8.38013
196,Bremen Hbf,Hamburg-Harburg,7086,28736,45650,15,ICE 42,23166.0,488.0,103.4704224441274,53.083565,8.81426,53.45627,9.992209
197,Bremen Hbf,Hamm(Westf)Hbf,26822,602945,75696,4,ICE 43,114703.0,271.0,207.17698050611725,53.08342,8.814067,51.678078,7.807821
198,Bremen Hbf,Hannover Hbf,15138,95967,446858,0,ICE 25,317297.0,231.0,121.91341434276195,53.083275,8.813879,52.377087,9.741169
199,Bremen Hbf,Minden(Westf),26716,492160,75696,4,ICE 43,240061.0,307.0,119.8303157109017,53.08342,8.814067,52.29061,8.934859
200,Bremen Hbf,Münster(Westf)Hbf,1410,80712,45650,2,ICE 39,649570.0,537.0,171.38789269257623,53.083565,8.81426,51.95697,7.635815
201,Bremen Hbf,Oldenburg(Oldb)Hbf,42279,23096,158195,7,ICE 22,106284.0,231.0,44.57152886127356,53.083073,8.813611,53.14432,8.222713
202,Bremen Hbf,Osnabrück Hbf,6260,12442,307223,5,ICE 42,487683.0,627.0,121.57603317547344,53.0835,8.81418,52.272747,8.061333
203,Bremen Hbf,Recklinghausen Hbf,615,204456,45650,3,ICE 39,6562.0,283.0,228.3659034568829,53.083565,8.81426,51.61667,7.203509
204,Bremen Hbf,Verden(Aller),20680,4360,244976,12,IC 56,308286.0,333.0,35.562301628425715,53.082947,8.813447,52.920876,9.237633
205,Bremen Hbf,Wunstorf,20972,648475,158195,2,IC 56,118611.0,254.0,101.21754355017912,53.083073,8.813611,52.422344,9.451112
206,Bruchsal,Karlsruhe Hbf,17871,37045,183214,6,ICE 60,592384.0,156.0,22.226401336711355,49.125088,8.590113,48.99332,8.401422
207,Bruchsal,Karlsruhe-Durlach,17804,173367,183214,1,ICE 60,301718.0,105.0,16.959571568790118,49.125088,8.590113,49.002155,8.462328
208,Bruchsal,Stuttgart Hbf,17811,200659,183214,1,ICE 60,304723.0,151.0,65.39736680901777,49.125088,8.590113,48.784748,9.183217
209,Bruchsal,Wiesloch-Walldorf,2315,1353086,183214,4,IC 34,408463.0,330.0,19.671251865289808,49.125088,8.590113,49.291042,8.664242
210,Buchloe,"Memmingen, Bahnhof ZOB",27702,11392,431224,1,ECE 88,393153.0,118.0,46.14390148239785,48.033585,10.716273,47.984997,10.186392
211,Buchloe,München Hbf,27695,11194,172039,2,ECE 88,344460.0,109.0,68.46663976324298,48.03355,10.716389,48.1405,11.55759
212,Böblingen,Herrenberg,39777,5139,449942,0,IC 87,365900.0,98.0,16.34292461348912,48.688004,9.00438,48.594112,8.862716
213,Böblingen,Horb,39573,2297,449942,1,IC 87,132445.0,141.0,41.24909233439261,48.688004,9.00438,48.441597,8.688775
214,Böblingen,Stuttgart Hbf,39597,245,502699,11,IC 87,304723.0,118.0,22.31989819079115,48.687847,9.004641,48.784748,9.183217
215,Böblingen,Stuttgart-Vaihingen,39768,453577,502699,10,IC 87,516942.0,114.0,10.29684863957971,48.687847,9.004641,48.72628,9.113226
216,Büchen,Hamburg Hbf,18405,29414,91359,9,ICE 15,500722.0,377.0,46.91314182294342,53.474976,10.623292,53.55252,10.007353
217,Büchen,Hamburg-Bergedorf,43237,123213,91359,10,EC 27,515323.0,262.0,31.066821991650627,53.474976,10.623292,53.48963,10.205985
218,Büchen,Ludwigslust,43430,58224,91359,2,EC 27,281299.0,258.0,68.44476572386662,53.474976,10.623292,53.334885,11.49398
219,Bünde(Westf),Hannover Hbf,41616,299125,194877,5,IC 77,286285.0,219.0,94.4664128239251,52.202274,8.574509,52.37734,9.741547
220,Bünde(Westf),Osnabrück Hbf,41879,87697,629384,4,IC 77,485600.0,224.0,38.83240547697589,52.20239,8.574419,52.273598,8.059918
221,Bünde(Westf),Wunstorf,41856,80464,194877,5,IC 77,140878.0,213.0,74.40887395688604,52.202274,8.574509,52.422108,9.450672
222,Bützow,Bad Kleinen,38150,205422,148800,1,ICE 24,143944.0,368.0,40.77592670954138,53.83704,11.997872,53.766945,11.466213
223,Bützow,Rostock Hbf,28417,19898,207188,9,IC 57,298692.0,235.0,30.57166361675732,53.83715,11.998132,54.078262,12.131398
224,Bützow,Schwerin Hbf,37288,38835,148800,6,ICE 26,166260.0,468.0,57.028920817057006,53.83704,11.997872,53.635628,11.407445
225,Celle,Hannover Hbf,24173,9451,665982,6,ICE 11,317297.0,424.0,41.046983459460016,52.620457,10.062468,52.377087,9.741169
226,Celle,Langenhagen Mitte,38174,236847,665982,7,ICE 24,664207.0,159.0,31.053826709870368,52.620457,10.062468,52.440178,9.725413
227,Celle,Lüneburg,38382,89352,665982,6,ICE 24,618982.0,230.0,87.05710192134062,52.620457,10.062468,53.249535,10.419739
228,Celle,Uelzen,14562,630,665982,8,ICE 25,558591.0,354.0,52.141702990718926,52.620457,10.062468,52.969612,10.553516
229,Celle,Wolfsburg Hbf,38279,699875,665982,6,ICE 24,402576.0,220.0,86.81606821745657,52.620457,10.062468,52.429382,10.787698
230,Chemnitz Hbf,Berlin Südkreuz,39272,906620,634572,0,IC 17,541803.0,142.0,208.12144529775333,50.839695,12.930877,52.475433,13.365603
231,Chemnitz Hbf,Freiberg(Sachs),39060,342722,26027,0,IC 17,62984.0,308.0,41.30677231372108,50.83933,12.931177,50.908634,13.344572
232,Coburg,Bamberg,33907,145684,372584,6,ICE 28,590855.0,274.0,44.94029245805447,50.26347,10.957452,49.900597,10.899735
233,Coburg,Hauptbahnhof,34375,76763,33094,3,ICE 28,356159.0,326.0,87.40317125441172,50.263447,10.957201,50.97211,11.037261
234,Coburg,Nürnberg Hbf,33059,541202,372584,7,ICE 91,656568.0,420.0,107.2532280622368,50.26347,10.957452,49.44541,11.082291
235,Cottbus Hbf,Lübbenau(Spreewald),21193,842357,49644,0,IC 56,36350.0,423.0,29.86640686292215,51.75054,14.323346,51.862095,13.961176
236,Crailsheim,Ansbach Bahnhof,22653,42716,78954,5,IC 61,594107.0,126.0,47.332311605435606,49.13812,10.064814,49.299145,10.578166
237,Crailsheim,Ellwangen,22440,11312,582256,2,IC 61,406498.0,175.0,21.377499327639704,49.138126,10.064572,48.96439,10.129664
238,Darmstadt Hbf,Bensheim,31887,134605,504087,1,IC 62,394155.0,100.0,22.69522347673259,49.87304,8.629164,49.681423,8.616721
239,Darmstadt Hbf,Frankfurt(Main)Hbf,37991,12810,504087,3,ICE 24,430031.0,355.0,28.08436149097609,49.87304,8.629164,50.10587,8.663474
240,Darmstadt Hbf,Frankfurt(Main)Süd,36521,589133,504087,5,ICE 16,305162.0,393.0,26.510075426929557,49.87304,8.629164,50.099003,8.686179
241,Darmstadt Hbf,Heidelberg Hbf,36034,857962,504087,6,ICE 20,468518.0,324.0,60.1831315293317,49.87304,8.629164,49.403625,8.674905
242,Darmstadt Hbf,Mannheim Hbf,36510,563718,504087,5,ICE 16,555655.0,393.0,60.55116967529509,49.87304,8.629164,49.47901,8.469757
243,Darmstadt Hbf,Stuttgart Hbf,31945,443693,504087,1,IC 62,304723.0,92.0,151.60423121634474,49.87304,8.629164,48.784748,9.183217
244,Darmstadt Hbf,Weinheim(Bergstr)Hbf,40880,283579,504087,1,ICE 62,364388.0,87.0,37.53097469725724,49.87304,8.629164,49.55361,8.665401
245,Delmenhorst,Bremen Hbf,20679,4360,15104,11,IC 56,244976.0,333.0,13.203442034300814,53.05279,8.629758,53.082947,8.813447
246,Delmenhorst,Hude,20546,3827,15104,11,IC 56,1247.0,304.0,14.39670497327006,53.05279,8.629758,53.10929,8.460912
247,Delmenhorst,Oldenburg(Oldb)Hbf,20752,4822,15104,12,IC 56,106284.0,372.0,31.37047142741068,53.05279,8.629758,53.14432,8.222713
248,Dessau Hbf,Bitterfeld,30351,43799,210810,9,IC 55,304607.0,388.0,25.88425798838483,51.839867,12.234945,51.62286,12.31685
249,Dessau Hbf,Halle(Saale)Hbf,21361,97579,210810,15,IC 56,199582.0,302.0,55.5340845549066,51.839867,12.234945,51.47751,11.987085
250,Dessau Hbf,Magdeburg Hbf,20745,4822,210810,5,IC 56,105607.0,372.0,61.173333647721336,51.839867,12.234945,52.130512,11.626963
251,Diepholz,Bremen Hbf,7421,45917,348116,6,ICE 42,45650.0,267.0,69.73943331354823,52.6046,8.380267,53.083565,8.81426
252,Diepholz,Osnabrück Hbf,41144,34419,98440,5,EC 43,487683.0,518.0,52.30812258464172,52.604637,8.38013,52.272747,8.061333
253,Dillenburg,Siegen Hbf,2419,162550,551690,4,IC 34,189237.0,226.0,32.18495233338032,50.734905,8.294586,50.876408,8.017311
254,Dillenburg,Wetzlar,2463,24344,551690,12,IC 34,101076.0,192.0,28.778720502344605,50.734905,8.294586,50.56566,8.504213
255,Doberlug-Kirchhain,Elsterwerda,39073,36159,666623,3,IC 17,251302.0,101.0,21.08500205520348,51.62053,13.564161,51.459404,13.516305
256,Doberlug-Kirchhain,Flughafen BER,38844,103059,198130,3,IC 17,514283.0,262.0,101.5569548246251,51.620533,13.564268,52.36416,13.509246
257,Donauwörth,Augsburg Hbf,22006,38055,501148,13,ICE 18,232820.0,463.0,41.55209544583551,48.71402,10.771564,48.3656,10.885713
258,Donauwörth,Nürnberg Hbf,42843,143586,29233,3,ICE 29,656568.0,411.0,96.4000930140341,48.71413,10.771654,49.44541,11.082291
259,Donauwörth,Treuchtlingen,22068,49178,29233,3,ICE 18,132199.0,284.0,34.48742926404389,48.71413,10.771654,48.961014,10.908198
260,Dortmund Hbf,Bochum Hbf,12126,5903,440431,0,ICE 47,156853.0,309.0,18.793854128703305,51.51796,7.458703,51.47853,7.222715
261,Dortmund Hbf,Düsseldorf Hbf,30870,592468,390698,6,IC 55,63688.0,252.0,69.05687089754659,51.517723,7.458775,51.219963,6.794319
262,Dortmund Hbf,Essen Hbf,32899,3972,387211,0,ICE 91,354742.0,459.0,33.730505305693335,51.517883,7.458721,51.45159,7.013956
263,Dortmund Hbf,Gelsenkirchen Hbf,8676,114188,387211,6,ICE 10,109085.0,275.0,30.55034994228528,51.517883,7.458721,51.5049,7.102455
264,Dortmund Hbf,Hagen Hbf,25763,13486,387211,7,ICE 43,600566.0,381.0,23.635490775464607,51.517883,7.458721,51.36264,7.46049
265,Dortmund Hbf,Hamm(Westf)Hbf,31096,76081,390698,6,IC 55,185544.0,233.0,31.177480100294737,51.517723,7.458775,51.678474,7.807276
266,Dortmund Hbf,Hannover Hbf,28915,1054137,390698,4,IC 55,602659.0,223.0,206.8070052785547,51.517723,7.458775,52.37746,9.74169
267,Dortmund Hbf,Köln Hbf,7659,657112,387211,8,ICE 42,266079.0,633.0,112.36502696777126,51.517883,7.458721,50.943333,6.958566
268,Dortmund Hbf,Köln Messe/Deutz Gl.11-12,15665,1270719,387211,0,ICE 41,314686.0,337.0,94.38171681955764,51.517883,7.458721,50.941566,6.973855
269,Dortmund Hbf,Münster(Westf)Hbf,7083,28736,390698,12,ICE 42,329529.0,488.0,55.934580545186186,51.517723,7.458775,51.95694,7.636075
270,Dortmund Hbf,Osnabrück Hbf,5804,1067142,390698,11,ICE 42,479312.0,496.0,105.7488304749874,51.517723,7.458775,52.272697,8.061522
271,Dortmund Hbf,Recklinghausen Hbf,30342,43799,420641,0,IC 55,6562.0,388.0,31.171339052231925,51.51821,7.45864,51.61667,7.203509
272,Dortmund Hbf,Solingen Hbf,7064,28317,387211,7,ICE 42,162870.0,363.0,67.72215575262588,51.517883,7.458721,51.161087,7.003985
273,Dortmund Hbf,Wanne-Eickel Hbf,17393,79975,549848,9,ICE 41,307389.0,269.0,25.880868964855893,51.518063,7.458685,51.531357,7.166247
274,Dortmund Hbf,Witten Hbf,2451,24344,387211,0,IC 34,127893.0,192.0,15.389561422551813,51.517883,7.458721,51.435375,7.329327
275,Dresden Hbf,Bad Schandau,43437,58224,629768,9,EC 27,194907.0,258.0,40.59575218717996,51.039875,13.731396,50.91921,14.137704
276,Dresden Hbf,Dresden-Neustadt,20740,4822,457631,0,IC 56,567939.0,372.0,4.165854367055582,51.040684,13.731863,51.065994,13.740424
277,Dresden Hbf,Freiberg(Sachs),39105,403364,629768,8,IC 17,276518.0,314.0,41.227620105824194,51.039875,13.731396,50.908737,13.344644
278,Dresden-Neustadt,Berlin Ostbahnhof,43364,270190,567939,4,EC 27,651629.0,281.0,184.98514825420503,51.065994,13.740424,52.510414,13.435172
279,Dresden-Neustadt,Berlin Ostkreuz,42672,191663,567939,1,ICE 27,572319.0,197.0,182.63270816483367,51.065994,13.740424,52.50304,13.468615
280,Dresden-Neustadt,Berlin Südkreuz,43509,92783,567939,4,EC 27,622546.0,128.0,186.1792020795816,51.065994,13.740424,52.475407,13.365754
281,Dresden-Neustadt,Dresden Hbf,39075,36159,651231,5,IC 17,629768.0,101.0,4.195208076512471,51.066097,13.740235,51.039875,13.731396
282,Dresden-Neustadt,Elsterwerda,38842,103059,354032,1,IC 17,479164.0,262.0,53.1752670988805,51.06591,13.740541,51.46012,13.51666
283,Dresden-Neustadt,Freiberg(Sachs),38938,121665,651231,6,IC 17,276518.0,167.0,43.476324934986266,51.066097,13.740235,50.908737,13.344644
284,Dresden-Neustadt,Riesa,20741,4822,567939,1,IC 56,663890.0,372.0,49.81665142035568,51.065994,13.740424,51.30983,13.288293
285,Duisburg Hbf,Bochum Hbf,32867,37809,288771,11,ICE 91,37199.0,499.0,34.88553251997297,51.429836,6.777088,51.478394,7.222859
286,Duisburg Hbf,Dortmund Hbf,11822,1402666,288771,10,ICE 47,237500.0,314.0,52.93496205241628,51.429836,6.777088,51.5176,7.458793
287,Duisburg Hbf,Düsseldorf Flughafen,9720,23485,315320,13,ICE 10,668917.0,298.0,15.670681398414487,51.43,6.775696,51.29135,6.786853
288,Duisburg Hbf,Düsseldorf Hbf,32901,3972,315320,2,ICE 91,244116.0,459.0,23.755544073639594,51.43,6.775696,51.219543,6.794776
289,Duisburg Hbf,Essen Hbf,16210,2305,288771,7,ICE 41,496243.0,229.0,19.204456746722965,51.429836,6.777088,51.45151,7.013974
290,Duisburg Hbf,Gelsenkirchen Hbf,11887,177487,288771,6,ICE 47,264480.0,349.0,25.847406695085372,51.429836,6.777088,51.504982,7.103087
291,Duisburg Hbf,Krefeld Hbf,40050,1031159,159621,11,ICE 14,100003.0,316.0,20.289918033737127,51.42997,6.775902,51.325718,6.569885
292,Duisburg Hbf,Köln Hbf,11285,86348,315320,13,ICE 10,641327.0,296.0,79.1552904502006,51.43,6.775696,50.943436,6.958808
293,Duisburg Hbf,Mülheim(Ruhr)Hbf,24444,83298,121692,18,ICE 32,382274.0,485.0,8.485959388144641,51.42987,6.776801,51.43114,6.886665
294,Duisburg Hbf,Oberhausen Hbf,12085,54149,324446,10,ICE 47,487748.0,302.0,7.824774138107799,51.429867,6.776882,51.474876,6.851588
295,Düren,Aachen Hbf,621,204456,104569,9,ICE 39,175106.0,283.0,30.866346398123,50.809517,6.482451,50.7678,6.091499
296,Düren,Köln Hbf,40168,151439,104569,1,ICE 14,125814.0,348.0,45.75642726737577,50.809517,6.482451,50.94303,6.958729
297,Düsseldorf Flughafen,Duisburg Hbf,11436,92220,427438,1,ICE 10,288771.0,252.0,15.669864446792406,51.291367,6.787158,51.429836,6.777088
298,Düsseldorf Flughafen,Düsseldorf Hbf,9721,23485,668917,14,ICE 10,535911.0,298.0,8.099557696853115,51.29135,6.786853,51.219612,6.794632
299,Düsseldorf Hbf,Dortmund Hbf,7145,312560,63688,9,ICE 42,390698.0,529.0,69.05687089754653,51.219963,6.794319,51.517723,7.458775
300,Düsseldorf Hbf,Duisburg Hbf,16209,2305,657998,6,ICE 41,288771.0,229.0,23.755544073639587,51.219505,6.794866,51.429836,6.777088
301,Düsseldorf Hbf,Düsseldorf Flughafen,11435,92220,657998,0,ICE 10,427438.0,252.0,8.100423854393032,51.219505,6.794866,51.291367,6.787158
302,Düsseldorf Hbf,Koblenz Hbf,33486,986287,535911,4,ICE 91,333033.0,434.0,123.9601303549976,51.219612,6.794632,50.35093,7.588345
303,Düsseldorf Hbf,Köln Hbf,6267,12442,244116,12,ICE 42,266079.0,627.0,56.808392097707056,51.219543,6.794776,50.943333,6.958566
304,Düsseldorf Hbf,Köln Messe/Deutz,31480,903777,244116,10,IC 55,379374.0,353.0,38.82453880678026,51.219543,6.794776,50.94096,6.975957
305,Düsseldorf Hbf,Köln Messe/Deutz Gl.11-12,32902,3972,244116,3,ICE 91,314686.0,459.0,38.82508194949343,51.219543,6.794776,50.941566,6.973855
306,Düsseldorf Hbf,Mainz Hbf,32261,1075835,535911,4,ICE 91,149884.0,482.0,205.30011156124715,51.219612,6.794632,50.001118,8.25872
307,Düsseldorf Hbf,Neuss Hbf,10952,73135,41720,10,ICE 10,118289.0,346.0,10.838726149647016,51.220093,6.793644,51.205223,6.684885
308,Eberswalde Hbf,Angermünde,18363,227524,551066,13,ICE 15,246924.0,567.0,25.602792377838657,52.83376,13.796866,53.015793,13.995908
309,Eberswalde Hbf,Berlin Gesundbrunnen,18589,66146,338801,9,ICE 15,626663.0,423.0,43.04893612107019,52.833805,13.796755,52.548794,13.3904
310,Eberswalde Hbf,Bernau(b Berlin),33738,123512,338801,9,ICE 28,481464.0,207.0,23.31743551718608,52.833805,13.796755,52.675426,13.591859
311,Eisenach Hbf,Bad Hersfeld,25013,71214,456782,6,ICE 50,294008.0,297.0,55.17765812449148,50.975952,10.331229,50.869633,9.716182
312,Eisenach Hbf,Bebra,18936,260007,456782,8,IC 51,613730.0,158.0,45.0279614122691,50.975952,10.331229,50.969566,9.797788
313,Eisenach Hbf,Frankfurt(Main)Hbf,23663,52301,456782,10,ICE 11,463665.0,657.0,200.9665469737353,50.975952,10.331229,50.1062,8.663011
314,Eisenach Hbf,Fulda,23957,75191,456782,6,ICE 11,543565.0,454.0,97.62054070790208,50.975952,10.331229,50.555016,9.683904
315,Eisenach Hbf,Gotha,24811,35298,456782,5,ICE 50,671938.0,241.0,29.08427083252444,50.975952,10.331229,50.93907,10.712568
316,Eisenach Hbf,Hauptbahnhof,23533,33983,456782,7,ICE 11,356159.0,315.0,56.8521809338377,50.975952,10.331229,50.97211,11.037261
317,Eisenach Hbf,Kassel-Wilhelmshöhe,18965,599037,456782,8,IC 51,622425.0,344.0,99.1586752421838,50.975952,10.331229,51.312435,9.448181
318,Ellwangen,Aalen Hbf,22441,11312,406498,3,IC 61,521377.0,175.0,15.502928587097164,48.96439,10.129664,48.84168,10.09613
319,Ellwangen,Crailsheim,22652,42716,406498,4,IC 61,78954.0,126.0,22.0738083502002,48.96439,10.129664,49.13812,10.064814
320,Elsterwerda,Doberlug-Kirchhain,38843,103059,479164,2,IC 17,198130.0,262.0,21.085002055203493,51.46012,13.51666,51.620533,13.564268
321,Elsterwerda,Dresden-Neustadt,39074,36159,251302,4,IC 17,651231.0,101.0,53.17526709888052,51.459404,13.516305,51.066097,13.740235
322,Elsterwerda,Riesa,29912,218147,378414,2,IC 55,663890.0,84.0,23.54402054545938,51.45942,13.516226,51.30983,13.288293
323,Emden Außenhafen,Emden Hbf,21319,96875,468797,0,IC 56,242961.0,378.0,3.119462954323038,53.344498,7.186394,53.369442,7.194968
324,Emden Hbf,Emden Außenhafen,20114,144379,242961,11,IC 56,468797.0,148.0,3.119462954323038,53.369442,7.194968,53.344498,7.186394
325,Emden Hbf,Leer(Ostfriesl),20672,4360,511270,4,IC 56,133077.0,333.0,27.10300865016721,53.369396,7.195112,53.231438,7.46537
326,Emden Hbf,Marienhafe,20442,305137,511270,5,IC 56,80517.0,86.0,19.33203817102466,53.369396,7.195112,53.51922,7.27422
327,Emden Hbf,Norden,11893,177487,205677,12,ICE 47,649232.0,349.0,28.446641442156388,53.36936,7.195267,53.588104,7.219352
328,Emden Hbf,Rheine,27923,1189202,205677,1,IC 35,230266.0,217.0,141.38930234245822,53.36936,7.195267,52.27575,7.434754
329,Engen,Tuttlingen,39587,245,642362,1,IC 87,210691.0,118.0,19.66764579931182,47.8561,8.772597,47.98054,8.798271
330,Ergenzingen,Bondorf(b Herrenberg),39660,325570,292336,2,IC 87,8955.0,149.0,5.974955577880718,48.48959,8.810191,48.52329,8.827852
331,Ergenzingen,Eutingen im Gäu,39941,79678,640560,5,IC 87,400850.0,94.0,1.2362129551125294,48.489243,8.809751,48.479736,8.782361
332,Erkelenz,Geilenkirchen,10956,73135,126864,14,ICE 10,113417.0,346.0,14.756375547972787,51.076595,6.321634,50.96104,6.124518
333,Erkelenz,Rheydt Hbf,40219,368508,126864,3,ICE 14,35108.0,316.0,17.539290424444445,51.076595,6.321634,51.162872,6.439879
334,Erlangen,Bamberg,34253,5768,551567,2,ICE 28,378280.0,286.0,38.66424136323211,49.596188,11.001685,49.900574,10.900122
335,Erlangen,Fürth(Bay)Hbf,38804,101802,173118,12,IC 17,243376.0,479.0,15.82734231237167,49.596157,11.001488,49.469738,10.990079
336,Erlangen,Hauptbahnhof,34026,272555,551567,2,ICE 28,356159.0,374.0,166.97821214537285,49.596188,11.001685,50.97211,11.037261
337,Erlangen,Nürnberg Hbf,22239,71196,173118,11,ICE 18,656568.0,366.0,23.61875652291643,49.596157,11.001488,49.44541,11.082291
338,Essen Hbf,Bochum Hbf,15735,13061,308596,13,ICE 41,37199.0,348.0,15.68107577325001,51.451363,7.014001,51.478394,7.222859
339,Essen Hbf,Dortmund Hbf,16066,15787,496243,12,ICE 41,440431.0,322.0,33.73050530569333,51.45151,7.013974,51.51796,7.458703
340,Essen Hbf,Duisburg Hbf,32900,3972,354742,1,ICE 91,315320.0,459.0,19.20445674672297,51.45159,7.013956,51.43,6.775696
341,Essen Hbf,Düsseldorf Hbf,40125,1272604,237506,7,ICE 14,535911.0,353.0,36.09272670582013,51.451736,7.013938,51.219612,6.794632
342,Essen Hbf,Gelsenkirchen Hbf,7009,236415,496243,11,ICE 42,73800.0,346.0,10.301254199939638,51.45151,7.013974,51.50487,7.103141
343,Essen Hbf,Hamburg Hbf,771,390365,308596,3,ICE 39,470546.0,230.0,353.3761987231439,51.451363,7.014001,53.55232,10.006654
344,Essen Hbf,Mülheim(Ruhr)Hbf,40245,464505,237506,9,ICE 14,150960.0,342.0,14.879725238961097,51.451736,7.013938,51.431454,6.88679
345,Essen Hbf,Münster(Westf)Hbf,1185,64738,496243,14,ICE 39,329529.0,612.0,82.7909506896868,51.45151,7.013974,51.95694,7.636075
346,Essen Hbf,Recklinghausen Hbf,7841,72026,496243,11,ICE 42,6562.0,357.0,25.734231312135112,51.45151,7.013974,51.61667,7.203509
347,Essen Hbf,Wanne-Eickel Hbf,40172,151439,496243,5,ICE 14,207777.0,348.0,15.465770478910237,51.45151,7.013974,51.531303,7.166328
348,Esslingen(Neckar),Ulm Hbf,12489,425916,143801,5,EC 62,520479.0,307.0,76.63947260529048,48.738544,9.300522,48.399345,9.982816
349,Eutingen im Gäu,Ergenzingen,39659,325570,400850,1,IC 87,292336.0,149.0,1.2362129551125294,48.479736,8.782361,48.48959,8.810191
350,Eutingen im Gäu,Horb,39942,79678,400850,6,IC 87,132445.0,94.0,9.65537993109728,48.479736,8.782361,48.441597,8.688775
351,Finnentrop,Lennestadt-Grevenbrück,2457,24344,586194,6,IC 34,186833.0,192.0,5.378917563027877,51.1729,7.96467,51.14155,8.018138
352,Finnentrop,Plettenberg,2361,142446,586194,5,IC 34,5690.0,99.0,12.930215955804709,51.1729,7.96467,51.23197,7.868424
353,Flensburg,Flensburg(Gr),41314,40138,583469,0,IC 76,626778.0,9.0,4.759294880067378,54.773857,9.436511,54.814842,9.36324
354,Flensburg,Schleswig,43348,261425,583469,0,EC 27,210357.0,366.0,37.513502160616255,54.773857,9.436511,54.49946,9.53814
355,Flensburg(Gr),Flensburg,41292,110733,626778,1,IC 76,583469.0,9.0,4.759294880067379,54.814842,9.36324,54.773857,9.436511
356,Flensburg(Gr),Schleswig,32033,131839,626778,1,EC 75,210357.0,115.0,35.986997543932,54.814842,9.36324,54.49946,9.53814
357,Flughafen BER,Berlin Ostkreuz,39055,290320,514283,4,IC 17,283561.0,265.0,26.084396820545816,52.36416,13.509246,52.503067,13.469961
358,Flughafen BER,Berlin Südkreuz,38845,103059,514283,4,IC 17,541803.0,262.0,28.702933366905263,52.36416,13.509246,52.475433,13.365603
359,Flughafen BER,Doberlug-Kirchhain,39072,36159,131752,2,IC 17,666623.0,101.0,101.55695482462514,52.364323,13.509145,51.62053,13.564161
360,Forbach(fr),Saarbrücken Hbf,18770,50533,457472,1,ICE 82,670210.0,1.0,4.919588328662313,49.21409,6.944314,49.241283,6.991011
361,Frankfurt(M) Flughafen Fernbf,Aschaffenburg Hbf,3384,1500027,298350,8,ICE 12,238166.0,559.0,52.26438075746902,50.053165,8.570185,49.980556,9.143697
362,Frankfurt(M) Flughafen Fernbf,Düsseldorf Hbf,16629,42576,298350,5,ICE 41,657998.0,398.0,202.51314450685612,50.053165,8.570185,51.219505,6.794866
363,Frankfurt(M) Flughafen Fernbf,Frankfurt(Main)Hbf,32905,3972,298350,6,ICE 91,69369.0,459.0,11.229302197935173,50.053165,8.570185,50.106148,8.663123
364,Frankfurt(M) Flughafen Fernbf,Frankfurt(Main)Süd,5068,12227,298350,0,ICE 13,305162.0,259.0,10.760196964094153,50.053165,8.570185,50.099003,8.686179
365,Frankfurt(M) Flughafen Fernbf,Fulda,4042,474201,298350,8,ICE 12,543565.0,588.0,109.69490772669458,50.053165,8.570185,50.555016,9.683904
366,Frankfurt(M) Flughafen Fernbf,Göttingen,4609,797586,298350,8,ICE 12,170216.0,509.0,244.02869714532787,50.053165,8.570185,51.536682,9.926424
367,Frankfurt(M) Flughafen Fernbf,Koblenz Hbf,8110,903472,298350,6,ICE 42,333033.0,325.0,117.45642549514412,50.053165,8.570185,50.35093,7.588345
368,Frankfurt(M) Flughafen Fernbf,Köln Hbf,40481,2109,298350,1,ICE 79,125814.0,102.0,185.3199109034002,50.053165,8.570185,50.94303,6.958729
369,Frankfurt(M) Flughafen Fernbf,Köln Messe/Deutz Gl.11-12,16207,2305,298350,4,ICE 41,427014.0,229.0,167.3348230129545,50.053165,8.570185,50.9416,6.973954
370,Frankfurt(M) Flughafen Fernbf,Limburg Süd,15727,13061,298350,5,ICE 41,537594.0,348.0,58.6429566129872,50.053165,8.570185,50.3819,8.095546
371,Frankfurt(M) Flughafen Fernbf,Mainz Hbf,32862,37809,298350,6,ICE 91,149884.0,499.0,25.730218197274816,50.053165,8.570185,50.001118,8.25872
372,Frankfurt(M) Flughafen Fernbf,Mannheim Hbf,12133,5903,298350,7,ICE 47,555655.0,309.0,71.73727741617144,50.053165,8.570185,49.47901,8.469757
373,Frankfurt(M) Flughafen Fernbf,Montabaur,24439,83298,298350,13,ICE 32,646191.0,485.0,80.63111459976527,50.053165,8.570185,50.444836,7.825333
374,Frankfurt(M) Flughafen Fernbf,Nürnberg Hbf,37806,376200,298350,2,ICE 2,594408.0,246.0,232.78535000183203,50.053165,8.570185,49.445267,11.082363
375,Frankfurt(M) Flughafen Fernbf,Siegburg/Bonn,12081,54149,298350,6,ICE 47,52326.0,302.0,210.26228238624296,50.053165,8.570185,50.79396,7.20262
376,Frankfurt(M) Flughafen Fernbf,Solingen Hbf,15713,1301428,298350,4,ICE 41,368958.0,259.0,190.3402025690707,50.053165,8.570185,51.160767,7.004187
377,Frankfurt(M) Flughafen Fernbf,Wiesbaden Hbf,25017,71214,298350,10,ICE 50,180381.0,297.0,30.065686161089943,50.053165,8.570185,50.069477,8.244631
378,Frankfurt(M) Flughafen Regionalbf,Frankfurt(Main)Hbf,1295,703383,564264,11,ICE 39,582590.0,497.0,11.634554931722016,50.05122,8.571251,50.106102,8.663151
379,Frankfurt(M) Flughafen Regionalbf,Mainz Hbf,158,114295,564264,1,ICE 39,149884.0,430.0,27.952441319377577,50.05122,8.571251,50.001118,8.25872
380,Frankfurt(M) Flughafen Regionalbf,Wiesbaden Hbf,25137,87270,564264,7,ICE 50,385143.0,229.0,31.811298210086875,50.05122,8.571251,50.06972,8.243677
381,Frankfurt(Main)Hbf,Aschaffenburg Hbf,16116,18399,69369,7,ICE 41,588574.0,255.0,45.91982113937499,50.106148,8.663123,49.98065,9.14343
382,Frankfurt(Main)Hbf,"Bahnhof, Friedberg (Hessen)",32189,9459,16269,0,IC 26,444166.0,262.0,33.836025404461786,50.10636,8.662772,50.33204,8.760561
383,Frankfurt(Main)Hbf,Berlin-Spandau,36485,23440,129296,0,ICE 16,402735.0,246.0,524.1933408880648,50.10652,8.662645,52.534542,13.197124
384,Frankfurt(Main)Hbf,Darmstadt Hbf,31886,134605,129296,0,IC 62,504087.0,100.0,27.63609358055014,50.10652,8.662645,49.87304,8.629164
385,Frankfurt(Main)Hbf,Düsseldorf Hbf,16227,238968,463665,4,ICE 41,580766.0,409.0,213.7006593910262,50.1062,8.663011,51.219433,6.795027
386,Frankfurt(Main)Hbf,Eisenach Hbf,23532,33983,15887,6,ICE 11,456782.0,315.0,200.9663026109894,50.106262,8.662941,50.975952,10.331229
387,Frankfurt(Main)Hbf,Frankfurt(M) Flughafen Fernbf,40480,2109,88255,0,ICE 79,298350.0,102.0,11.223224975429186,50.10696,8.662195,50.053165,8.570185
388,Frankfurt(Main)Hbf,Frankfurt(M) Flughafen Regionalbf,157,114295,88255,0,ICE 39,564264.0,430.0,11.623791638818547,50.10696,8.662195,50.05122,8.571251
389,Frankfurt(Main)Hbf,Frankfurt(Main)Süd,42272,23096,430031,0,ICE 22,305162.0,231.0,4.8656376301088455,50.10587,8.663474,50.099003,8.686179
390,Frankfurt(Main)Hbf,Frankfurt(Main)West,2415,162550,465515,0,IC 34,38436.0,226.0,3.342670817383883,50.10662,8.662561,50.11939,8.638952
391,Frankfurt(Main)Hbf,Fulda,24809,35298,582590,3,ICE 50,543565.0,241.0,103.35130305015431,50.106102,8.663151,50.555016,9.683904
392,Frankfurt(Main)Hbf,Hanau Hbf,32906,3972,69369,7,ICE 91,586880.0,459.0,22.80287351999292,50.106148,8.663123,50.121346,8.928415
393,Frankfurt(Main)Hbf,Hannover Hbf,1894,121693,463665,3,ICE 4,255162.0,289.0,337.25762269295933,50.1062,8.663011,52.37726,9.74143
394,Frankfurt(Main)Hbf,Hauptbahnhof,18397,29414,15887,1,ICE 15,356159.0,377.0,257.56921987960885,50.106262,8.662941,50.97211,11.037261
395,Frankfurt(Main)Hbf,Heidelberg Hbf,35663,43002,582590,5,ICE 20,374089.0,296.0,87.16143431480859,50.106102,8.663151,49.40357,8.675442
396,Frankfurt(Main)Hbf,Kassel-Wilhelmshöhe,35906,7405,463665,6,ICE 20,622425.0,365.0,193.0855283940071,50.1062,8.663011,51.312435,9.448181
397,Frankfurt(Main)Hbf,Köln Hbf,15597,1231455,582590,6,ICE 41,125814.0,351.0,196.53964545129068,50.106102,8.663151,50.94303,6.958729
398,Frankfurt(Main)Hbf,Köln Messe/Deutz Gl.11-12,347,130593,88255,0,ICE 39,427014.0,427.0,178.5491880538505,50.10696,8.662195,50.9416,6.973954
399,Frankfurt(Main)Hbf,Mainz-Kastel,29074,1089920,461469,0,IC 55,589102.0,326.0,33.51815629850565,50.1069,8.662237,50.00722,8.282239
400,Frankfurt(Main)Hbf,Mannheim Hbf,3688,2771,15887,10,ICE 12,555655.0,488.0,77.91001008769923,50.106262,8.662941,49.47901,8.469757
401,Frankfurt(Main)Hbf,Stuttgart Hbf,11861,144520,88255,0,ICE 47,304723.0,191.0,178.62887723241468,50.10696,8.662195,48.784748,9.183217
402,Frankfurt(Main)Hbf,Wiesbaden Hbf,13708,181373,463665,9,ICE 25,385143.0,303.0,41.002662873746814,50.1062,8.663011,50.06972,8.243677
403,Frankfurt(Main)Hbf,Würzburg Hbf,16383,341483,582590,7,ICE 41,376538.0,326.0,124.05798486081449,50.106102,8.663151,49.802,9.935924
404,Frankfurt(Main)Süd,Berlin-Spandau,28593,32132,309054,1,ICE 82,341415.0,263.0,519.7630717368701,50.099064,8.686108,52.534485,13.1971
405,Frankfurt(Main)Süd,Darmstadt Hbf,18630,739542,309054,4,ICE 15,504087.0,352.0,26.51007542692956,50.099064,8.686108,49.87304,8.629164
406,Frankfurt(Main)Süd,Frankfurt(M) Flughafen Fernbf,17280,72577,273266,4,ICE 41,298350.0,306.0,10.760196964094154,50.099205,8.685283,50.053165,8.570185
407,Frankfurt(Main)Süd,Frankfurt(M) Flughafen Regionalbf,25136,87270,309054,6,ICE 50,564264.0,229.0,11.17499103462231,50.099064,8.686108,50.05122,8.571251
408,Frankfurt(Main)Süd,Frankfurt(Main)Hbf,38190,38748,305162,11,ICE 24,573389.0,250.0,4.865637630108846,50.099003,8.686179,50.10577,8.663461
409,Frankfurt(Main)Süd,Fulda,5518,80615,305162,1,ICE 13,543565.0,286.0,98.93671958380828,50.099003,8.686179,50.555016,9.683904
410,Frankfurt(Main)Süd,Göttingen,3626,265074,305162,9,ICE 12,170216.0,529.0,233.27050900244157,50.099003,8.686179,51.536682,9.926424
411,Frankfurt(Main)Süd,Hanau Hbf,5069,12227,305162,1,ICE 13,586880.0,259.0,18.389244995200592,50.099003,8.686179,50.121346,8.928415
412,Frankfurt(Main)Süd,Karlsruhe Hbf,28610,427353,305162,3,ICE 82,279825.0,318.0,131.2321665973385,50.099003,8.686179,48.993732,8.401071
413,Frankfurt(Main)Süd,Mannheim Hbf,18467,44673,273266,4,ICE 15,342519.0,323.0,77.369095425759,50.099205,8.685283,49.479355,8.468921
414,Frankfurt(Main)West,Bad Nauheim,2416,162550,38436,1,IC 34,345757.0,226.0,35.52628240853626,50.11939,8.638952,50.367695,8.749241
415,Frankfurt(Main)West,"Bahnhof, Friedberg (Hessen)",37214,273218,38436,1,ICE 26,444166.0,281.0,30.25376384949328,50.11939,8.638952,50.33204,8.760561
416,Frankfurt(Main)West,Frankfurt(Main)Hbf,36903,12659,38436,8,ICE 26,129296.0,181.0,3.3430733459821687,50.11939,8.638952,50.10652,8.662645
417,Frankfurt(Oder),Berlin Gesundbrunnen,36390,97599,46988,2,EC 95,400896.0,60.0,87.0526663462022,52.336605,14.546146,52.548573,13.390519
418,Frankfurt(Oder),Berlin Ostbahnhof,12611,144091,67558,2,EC 96,463960.0,53.0,80.7832758990832,52.336643,14.54624,52.510254,13.435024
419,Frankfurt(Oder),Berlin Ostkreuz,36315,154660,46988,2,EC 95,572319.0,59.0,81.3068197482311,52.336605,14.546146,52.50304,13.468615
420,Frankfurt(Oder),Berlin-Lichtenberg,36341,35741,46988,2,EC 95,558943.0,75.0,79.41110661598765,52.336605,14.546146,52.510002,13.49649
421,Frankfurt(Oder),Frankfurt(Oder)(Gr),12616,23461,265905,2,EC 96,385763.0,65.0,3.578298159030237,52.336563,14.545988,52.321175,14.576403
422,Frankfurt(Oder)(Gr),Frankfurt(Oder),36340,35741,385763,1,EC 95,46988.0,75.0,3.5782981590302363,52.321175,14.576403,52.336605,14.546146
423,Freiberg(Sachs),Chemnitz Hbf,38939,121665,276518,7,IC 17,249264.0,167.0,41.28038082532032,50.908737,13.344644,50.84002,12.930907
424,Freiberg(Sachs),Dresden Hbf,39078,366690,62984,1,IC 17,431342.0,312.0,41.227620105824215,50.908634,13.344572,51.040016,13.731531
425,Freiberg(Sachs),Dresden-Neustadt,39061,342722,62984,1,IC 17,354032.0,308.0,43.47632493498625,50.908634,13.344572,51.06591,13.740541
426,Freiburg(Breisgau) Hbf,Baden-Baden,35902,7405,343792,2,ICE 20,563953.0,365.0,102.58766463500558,47.997704,7.841619,48.79032,8.190731
427,Freiburg(Breisgau) Hbf,Karlsruhe Hbf,41158,394947,343792,2,EC 43,482437.0,336.0,131.55993312002138,47.997704,7.841619,48.993675,8.401116
428,Freiburg(Breisgau) Hbf,Lahr(Schwarzw),17854,296730,343792,4,ICE 60,527527.0,260.0,44.62358023129865,47.997704,7.841619,48.340435,7.834734
429,Freiburg(Breisgau) Hbf,Müllheim im Markgräflerland,17828,225811,555488,11,ICE 60,15403.0,249.0,29.20302464712204,47.99773,7.841511,47.809742,7.599332
430,Freiburg(Breisgau) Hbf,Offenburg,35968,8187,343792,2,ICE 20,265599.0,344.0,62.67299746462807,47.997704,7.841619,48.476475,7.946723
431,Freiburg(Breisgau) Hbf,Ringsheim/Europa-Park,43555,139727,343792,2,ECE 85,65519.0,134.0,31.7220165277749,47.997704,7.841619,48.248688,7.772987
432,Freilassing,Traunstein,40676,30223,509104,1,IC 90,391077.0,225.0,29.13085238906132,47.836205,12.977997,47.868744,12.638541
433,Friedrichshafen Stadt,Lindau-Reutin,24374,696151,538875,14,ICE 32,109926.0,426.0,24.41480086390277,47.653084,9.473498,47.552383,9.703292
434,Friedrichshafen Stadt,Ravensburg,24333,486486,538875,1,ICE 32,291665.0,439.0,19.110994817905013,47.653084,9.473498,47.784374,9.606126
435,Fulda,Bad Hersfeld,24638,140114,543565,3,ICE 50,294008.0,288.0,42.44413853398312,50.555016,9.683904,50.869633,9.716182
436,Fulda,Eisenach Hbf,24810,35298,543565,4,ICE 50,456782.0,241.0,97.62054070790208,50.555016,9.683904,50.975952,10.331229
437,Fulda,Frankfurt(Main)Hbf,25015,71214,543565,8,ICE 50,582590.0,297.0,103.35130305015424,50.555016,9.683904,50.106102,8.663151
438,Fulda,Frankfurt(Main)Süd,38189,38748,543565,10,ICE 24,305162.0,250.0,98.9367195838082,50.555016,9.683904,50.099003,8.686179
439,Fulda,Göttingen,4358,63288,543565,11,ICE 12,170216.0,486.0,134.33761609716822,50.555016,9.683904,51.536682,9.926424
440,Fulda,Hanau Hbf,3686,2771,543565,8,ICE 12,586880.0,488.0,80.97578215912853,50.555016,9.683904,50.121346,8.928415
441,Fulda,Kassel-Wilhelmshöhe,14558,630,543565,4,ICE 25,622425.0,354.0,89.73952212817389,50.555016,9.683904,51.312435,9.448181
442,Fulda,Würzburg Hbf,14713,7165,543565,6,ICE 25,51167.0,358.0,93.11422872820587,50.555016,9.683904,49.80213,9.935987
443,Fürth Hauptbahnhof,Erlangen,38917,11735,634935,5,IC 17,551567.0,426.0,16.087941422920466,49.470367,10.991229,49.596188,11.001685
444,Fürth(Bay)Hbf,Ingolstadt Hbf,14551,628335,604708,6,ICE 25,531671.0,302.0,97.49033816944308,49.469707,10.989988,48.745197,11.436111
445,Fürth(Bay)Hbf,Nürnberg Hbf,38805,101802,243376,13,IC 17,442547.0,479.0,8.20927075607661,49.469738,10.990079,49.445053,11.08248
446,Fürth(Bay)Hbf,Würzburg Hbf,17593,919313,406150,2,ICE 41,51167.0,194.0,94.1755475100512,49.47032,10.990663,49.80213,9.935987
447,Garmisch-Partenkirchen,Mittenwald,38235,525797,553297,16,ICE 24,131493.0,476.0,19.470039259374342,47.49119,11.098515,47.440243,11.265224
448,Garmisch-Partenkirchen,Murnau,42919,291035,86009,0,ICE 29,332069.0,313.0,25.822049291361928,47.49107,11.098209,47.682854,11.193053
449,Geilenkirchen,Aachen Hbf,10957,73135,113417,15,ICE 10,175106.0,346.0,25.94879214494736,50.96104,6.124518,50.7678,6.091499
450,Geilenkirchen,Erkelenz,40218,368508,113417,2,ICE 14,126864.0,316.0,14.756375547972787,50.96104,6.124518,51.076595,6.321634
451,Geilenkirchen,Herzogenrath,40056,1031159,113417,17,ICE 14,49087.0,316.0,11.485899422872969,50.96104,6.124518,50.870914,6.094486
452,Gelsenkirchen Hbf,Dortmund Hbf,12297,840830,109085,11,ICE 47,390698.0,303.0,30.550349942285283,51.5049,7.102455,51.517723,7.458775
453,Gelsenkirchen Hbf,Duisburg Hbf,8677,114188,109085,7,ICE 10,159621.0,275.0,25.75794308857676,51.5049,7.102455,51.42997,6.775902
454,Gelsenkirchen Hbf,Essen Hbf,21567,787835,29567,10,IC 39,237506.0,401.0,10.301254199939637,51.50504,7.103051,51.451736,7.013938
455,Gelsenkirchen Hbf,Hamm(Westf)Hbf,25810,1355887,109085,12,ICE 43,185544.0,339.0,59.23802183738195,51.5049,7.102455,51.678474,7.807276
456,Gelsenkirchen Hbf,Münster(Westf)Hbf,5929,1111507,73800,12,ICE 42,329529.0,371.0,72.66025849534557,51.50487,7.103141,51.95694,7.636075
457,Gelsenkirchen Hbf,Oberhausen Hbf,17395,79975,29567,11,ICE 41,344815.0,269.0,19.315229270285567,51.50504,7.103051,51.474583,6.851163
458,Gelsenkirchen Hbf,Recklinghausen Hbf,7010,236415,73800,12,ICE 42,6562.0,346.0,15.60353911779388,51.50487,7.103141,51.61667,7.203509
459,Gelsenkirchen Hbf,Wanne-Eickel Hbf,11888,177487,264480,7,ICE 47,207777.0,349.0,5.335289826538891,51.504982,7.103087,51.531303,7.166328
460,Gera Hbf,Hermsdorf-Klosterlausnitz,18928,260007,291914,0,IC 51,554454.0,158.0,20.010883771706677,50.883423,12.077092,50.903778,11.858626
461,Gießen,"Bahnhof, Friedberg (Hessen)",36901,12659,149948,6,ICE 26,444166.0,181.0,32.91707710273547,50.579884,8.663799,50.33204,8.760561
462,Gießen,Marburg(Lahn),32191,9459,149948,2,IC 26,372673.0,262.0,30.44874180870008,50.579884,8.663799,50.819256,8.77516
463,Gotha,Eisenach Hbf,25012,71214,671938,5,ICE 50,456782.0,297.0,29.08427083252444,50.93907,10.712568,50.975952,10.331229
464,Gotha,Hauptbahnhof,24812,35298,671938,6,ICE 50,356159.0,241.0,27.89275404657388,50.93907,10.712568,50.97211,11.037261
465,Greifswald,Stralsund Hbf,37153,211910,74127,0,ICE 26,561115.0,415.0,30.79481868339835,54.092815,13.370453,54.30801,13.078087
466,Greifswald,Züssow,18583,66146,74127,3,ICE 15,490438.0,423.0,18.857476312213283,54.092815,13.370453,53.97243,13.549999
467,Gäufelden,Bondorf(b Herrenberg),39779,5139,378218,2,IC 87,358550.0,98.0,8.002143640473003,48.559734,8.85004,48.52328,8.827735
468,Gäufelden,Herrenberg,39595,245,455718,9,IC 87,414158.0,118.0,0.6751953012281733,48.559704,8.850157,48.593933,8.862895
469,Göttingen,Frankfurt(Main)Hbf,4405,663468,491565,7,ICE 12,15887.0,455.0,237.68337800025557,51.53667,9.925681,50.106262,8.662941
470,Göttingen,Fulda,3685,2771,491565,7,ICE 12,543565.0,488.0,134.3376160971682,51.53667,9.925681,50.555016,9.683904
471,Göttingen,Hanau Hbf,3670,274531,491565,7,ICE 12,586880.0,468.0,215.3095715777618,51.53667,9.925681,50.121346,8.928415
472,Göttingen,Hannover Hbf,14560,630,418089,6,ICE 25,255162.0,354.0,99.63019182596597,51.53674,9.925647,52.37726,9.74143
473,Göttingen,Hannover Messe/Laatzen,37839,105226,491565,4,ICE 24,120109.0,273.0,92.42731696129084,51.53667,9.925681,52.317005,9.792903
474,Göttingen,Hildesheim Hbf,5073,12227,418089,5,ICE 13,52563.0,259.0,79.06515660952402,51.53674,9.925647,52.160027,9.952812
475,Göttingen,Kassel-Wilhelmshöhe,14711,7165,378557,4,ICE 25,622425.0,358.0,44.59809396899432,51.536865,9.92561,51.312435,9.448181
476,Göttingen,Würzburg Hbf,14174,41372,491565,7,ICE 25,51167.0,437.0,227.4480181468392,51.53667,9.925681,49.80213,9.935987
477,Günzburg,Augsburg Hbf,6276,12442,594130,21,ICE 42,232820.0,627.0,61.01632193101428,48.46052,10.27926,48.3656,10.885713
478,Günzburg,Ulm Hbf,23006,11567,250154,3,ICE 11,320992.0,199.0,24.510260567812303,48.460575,10.279224,48.399345,9.982933
479,Gütersloh Hbf,Bielefeld Hbf,31098,76081,669982,8,IC 55,371277.0,233.0,17.779144717628576,51.906822,8.384893,52.029522,8.533106
480,Gütersloh Hbf,Hamm(Westf)Hbf,9715,23485,634354,8,ICE 10,185544.0,298.0,50.41093842584122,51.90686,8.38483,51.678474,7.807276
481,Hagen Hbf,Dortmund Hbf,33247,66517,636251,13,ICE 91,390698.0,439.0,23.49625813993004,51.363895,7.460697,51.517723,7.458775
482,Hagen Hbf,Hamm(Westf)Hbf,10093,37945,636251,2,ICE 10,447101.0,259.0,48.44779228474551,51.363895,7.460697,51.67856,7.807896
483,Hagen Hbf,Wuppertal Hbf,25764,13486,600566,8,ICE 43,485611.0,381.0,26.434514428575117,51.36264,7.46049,51.254597,7.150042
484,Halle(Saale)Hbf,Berlin Südkreuz,18399,29414,199582,3,ICE 15,177624.0,377.0,159.5957000234433,51.47751,11.987085,52.475685,13.365454
485,Halle(Saale)Hbf,Berlin-Wannsee,38465,120220,199582,4,ICE 8,118054.0,319.0,154.91872946019015,51.47751,11.987085,52.42135,13.180446
486,Halle(Saale)Hbf,Bitterfeld,22073,49178,199582,8,ICE 18,304607.0,284.0,29.652319065650776,51.47751,11.987085,51.62286,12.31685
487,Halle(Saale)Hbf,Dessau Hbf,20420,29637,199582,2,IC 56,210810.0,304.0,55.53408455490662,51.47751,11.987085,51.839867,12.234945
488,Halle(Saale)Hbf,Hauptbahnhof,43066,7048,199582,3,ICE 29,356159.0,238.0,92.30595541521926,51.47751,11.987085,50.97211,11.037261
489,Halle(Saale)Hbf,Köthen,20536,3827,199582,1,IC 56,16120.0,304.0,35.76436484400444,51.47751,11.987085,51.75193,11.989358
490,Halle(Saale)Hbf,Leipzig Hbf,20689,4360,199582,21,IC 56,233006.0,333.0,34.14525858525086,51.47751,11.987085,51.34547,12.382064
491,Halle(Saale)Hbf,Leipzig/Halle Flughafen,31221,79094,199582,2,IC 55,22365.0,149.0,17.922641497313066,51.47751,11.987085,51.42334,12.223426
492,Halle(Saale)Hbf,Naumburg(Saale)Hbf,38797,101802,199582,5,IC 17,589735.0,479.0,46.2617107256071,51.47751,11.987085,51.16307,11.796984
493,Hamburg Dammtor,Hamburg Hbf,24168,9451,141544,1,ICE 11,209783.0,424.0,0.7456041547277107,53.560757,9.989569,53.55271,10.007025
494,Hamburg Dammtor,Hamburg-Altona,35911,7405,141544,11,ICE 20,95587.0,365.0,6.037119693688126,53.560757,9.989569,53.55277,9.934896
495,Hamburg Dammtor,Itzehoe,32167,53087,141544,14,IC 26,94904.0,430.0,68.46711065064329,53.560757,9.989569,53.924175,9.510147
496,Hamburg Dammtor,Neumünster,36137,9255,141544,11,ICE 20,601267.0,390.0,74.61124404333788,53.560757,9.989569,54.075672,9.979839
497,Hamburg Hbf,Berlin-Spandau,34021,27141,500722,2,ICE 28,402735.0,115.0,275.23638001500035,53.55252,10.007353,52.534542,13.197124
498,Hamburg Hbf,Bremen Hbf,1409,80712,209783,1,ICE 39,45650.0,537.0,115.22246492594712,53.55271,10.007025,53.083565,8.81426
499,Hamburg Hbf,Büchen,43429,58224,500722,1,EC 27,91359.0,258.0,46.913141822943416,53.55252,10.007353,53.474976,10.623292
500,Hamburg Hbf,Essen Hbf,893,465556,551088,2,ICE 39,237506.0,219.0,353.37619872314417,53.552303,10.006336,51.451736,7.013938
501,Hamburg Hbf,Hamburg Dammtor,35910,7405,209783,10,ICE 20,141544.0,365.0,0.7456041547277107,53.55271,10.007025,53.560757,9.989569
502,Hamburg Hbf,Hamburg-Altona,42970,3616,500722,5,ICE 29,534367.0,336.0,6.352860375881783,53.55252,10.007353,53.552773,9.935077
503,Hamburg Hbf,Hamburg-Bergedorf,43415,414600,209783,1,EC 27,47811.0,134.0,16.648062304399577,53.55271,10.007025,53.48955,10.206101
504,Hamburg Hbf,Hamburg-Harburg,14708,7165,209783,1,ICE 25,566180.0,358.0,11.864242697588931,53.55271,10.007025,53.456177,9.991349
505,Hamburg Hbf,Hannover Hbf,42139,13123,209783,1,ICE 22,589302.0,291.0,164.55057953509976,53.55271,10.007025,52.376934,9.740981
506,Hamburg Hbf,Ludwigslust,42895,257807,209783,1,ICE 29,281299.0,357.0,114.9573254265832,53.55271,10.007025,53.334885,11.49398
507,Hamburg Hbf,Lübeck Hbf,42755,106418,500722,7,ICE 29,657884.0,375.0,62.44666656379672,53.55252,10.007353,53.867367,10.668852
508,Hamburg Hbf,Lüneburg,37886,114298,209783,2,ICE 24,618982.0,420.0,49.919302568878166,53.55271,10.007025,53.249535,10.419739
509,Hamburg Hbf,Neumünster,32039,245697,209783,0,EC 75,349464.0,118.0,75.10939281023171,53.55271,10.007025,54.07571,9.980097
510,Hamburg Hbf,Recklinghausen Hbf,1848,99424,209783,2,ICE 39,6562.0,495.0,327.7018115030378,53.55271,10.007025,51.61667,7.203509
511,Hamburg Hbf,Schleswig,32030,13179,209783,0,EC 75,665888.0,114.0,138.91189837321525,53.55271,10.007025,54.499577,9.538158
512,Hamburg Hbf,Schwerin Hbf,37344,45562,207166,5,ICE 26,517674.0,283.0,122.23453104834532,53.551598,10.006923,53.63563,11.407544
513,Hamburg Hbf,Wittenberge,22230,71196,500722,2,ICE 18,117246.0,366.0,158.93485405418156,53.55252,10.007353,53.003883,11.762578
514,Hamburg-Altona,Hamburg Dammtor,24167,9451,72190,0,ICE 11,141544.0,424.0,6.037119693688129,53.552803,9.934821,53.560757,9.989569
515,Hamburg-Altona,Hamburg Hbf,43428,58224,72190,0,EC 27,500722.0,258.0,6.59674498963091,53.552803,9.934821,53.55252,10.007353
516,Hamburg-Altona,Neumünster,22370,914930,72190,14,ICE 18,601267.0,463.0,70.99458464245248,53.552803,9.934821,54.075672,9.979839
517,Hamburg-Bergedorf,Büchen,42992,412055,47811,2,ICE 29,91359.0,137.0,31.066821991650613,53.48955,10.206101,53.474976,10.623292
518,Hamburg-Bergedorf,Hamburg Hbf,43238,123213,515323,11,EC 27,74283.0,262.0,16.58658577535064,53.48963,10.205985,53.552357,10.007322
519,Hamburg-Bergedorf,Schwerin Hbf,36877,1262240,47811,8,ICE 26,517674.0,348.0,106.45992867135824,53.48955,10.206101,53.63563,11.407544
520,Hamburg-Harburg,Bremen Hbf,6259,12442,105463,4,ICE 42,307223.0,627.0,103.47042244412742,53.45624,9.991983,53.0835,8.81418
521,Hamburg-Harburg,Hamburg Hbf,14565,630,23166,11,ICE 25,209783.0,354.0,11.849547709002218,53.45627,9.992209,53.55271,10.007025
522,Hamburg-Harburg,Hamburg-Bergedorf,42991,412055,566180,1,ICE 29,47811.0,137.0,27.11867044656009,53.456177,9.991349,53.48955,10.206101
523,Hamburg-Harburg,Hannover Hbf,14709,7165,566180,2,ICE 25,632004.0,358.0,152.95988856580408,53.456177,9.991349,52.376762,9.741021
524,Hamburg-Harburg,Lüneburg,24170,9451,566180,3,ICE 11,618982.0,424.0,38.10247798741015,53.456177,9.991349,53.249535,10.419739
525,Hamburg-Harburg,Osnabrück Hbf,6836,160621,105463,3,ICE 42,487683.0,455.0,209.15989873980868,53.45624,9.991983,52.272747,8.061333
526,Hamm(Westf)Hbf,Bielefeld Hbf,10094,37945,447101,3,ICE 10,371277.0,259.0,67.7085497354048,51.67856,7.807896,52.029522,8.533106
527,Hamm(Westf)Hbf,Dortmund Hbf,9716,23485,185544,9,ICE 10,390698.0,298.0,31.177480100294744,51.678474,7.807276,51.517723,7.458775
528,Hamm(Westf)Hbf,Düsseldorf Hbf,10396,487457,185544,5,ICE 10,63688.0,302.0,100.2343509978413,51.678474,7.807276,51.219963,6.794319
529,Hamm(Westf)Hbf,Gütersloh Hbf,31097,76081,185544,7,IC 55,669982.0,233.0,50.410938425841216,51.678474,7.807276,51.906822,8.384893
530,Hamm(Westf)Hbf,Hagen Hbf,9729,23625,185544,5,ICE 10,663278.0,267.0,48.70722489374427,51.678474,7.807276,51.36179,7.460302
531,Hamm(Westf)Hbf,Hannover Hbf,10678,616414,447101,3,ICE 10,286285.0,311.0,176.16592420900992,51.67856,7.807896,52.37734,9.741547
532,Hamm(Westf)Hbf,Münster(Westf)Hbf,169,114295,447101,12,ICE 39,103310.0,430.0,36.083595842897296,51.67856,7.807896,51.95702,7.635446
533,Hamm(Westf)Hbf,Soest,18912,200842,410163,7,IC 51,491535.0,336.0,26.842202964165462,51.6785,7.807492,51.57819,8.105337
534,Hamm(Westf)Hbf,Wuppertal Hbf,9990,32511,185544,5,ICE 10,485611.0,269.0,75.01860157113096,51.678474,7.807276,51.254597,7.150042
535,Hanau Hbf,Aschaffenburg Hbf,32834,33618,586880,1,ICE 91,588574.0,234.0,23.117841122763107,50.121346,8.928415,49.98065,9.14343
536,Hanau Hbf,Frankfurt(Main)Hbf,3687,2771,586880,9,ICE 12,15887.0,488.0,22.802113993014583,50.121346,8.928415,50.106262,8.662941
537,Hanau Hbf,Frankfurt(Main)Süd,16125,190090,586880,5,ICE 41,273266.0,287.0,18.38924499520059,50.121346,8.928415,50.099205,8.685283
538,Hanau Hbf,Fulda,5070,12227,586880,2,ICE 13,543565.0,259.0,80.97578215912861,50.121346,8.928415,50.555016,9.683904
539,Hanau Hbf,Göttingen,4232,585671,586880,10,ICE 12,170216.0,514.0,215.3095715777619,50.121346,8.928415,51.536682,9.926424
540,Hanau Hbf,Kassel-Wilhelmshöhe,42285,238002,586880,4,ICE 22,622425.0,304.0,170.71147760876752,50.121346,8.928415,51.312435,9.448181
541,Hanau Hbf,Würzburg Hbf,32907,3972,586880,8,ICE 91,51167.0,459.0,101.25504990264886,50.121346,8.928415,49.80213,9.935987
542,Hannover Hbf,Berlin Zoologischer Garten,26645,432165,614905,15,ICE 43,535633.0,389.0,253.80323998867723,52.3777,9.741798,52.50762,13.332927
543,Hannover Hbf,Berlin-Spandau,33915,145749,516311,3,ICE 28,341415.0,199.0,244.81946482899264,52.377796,9.741915,52.534485,13.1971
544,Hannover Hbf,Bielefeld Hbf,10453,50910,516311,4,ICE 10,597977.0,288.0,108.72823625572867,52.377796,9.741915,52.02962,8.532917
545,Hannover Hbf,Braunschweig Hbf,30347,43799,255162,5,IC 55,406072.0,388.0,61.6163831591916,52.37726,9.74143,52.25223,10.540921
546,Hannover Hbf,Bremen Hbf,42278,23096,255162,6,ICE 22,158195.0,231.0,121.913414342762,52.37726,9.74143,53.083073,8.813611
547,Hannover Hbf,Bünde(Westf),41878,87697,43645,3,IC 77,629384.0,224.0,94.46641282392513,52.377613,9.741834,52.20239,8.574419
548,Hannover Hbf,Celle,14561,630,255162,7,ICE 25,665982.0,354.0,41.04698345946001,52.37726,9.74143,52.620457,10.062468
549,Hannover Hbf,Frankfurt(Main)Hbf,1900,1495794,589302,3,ICE 4,416334.0,228.0,337.70598568717656,52.376934,9.740981,50.106003,8.663306
550,Hannover Hbf,Fulda,1913,218066,589302,3,ICE 4,543565.0,161.0,233.9116164271263,52.376934,9.740981,50.555016,9.683904
551,Hannover Hbf,Göttingen,3684,2771,614905,6,ICE 12,491565.0,488.0,99.63019182596592,52.3777,9.741798,51.53667,9.925681
552,Hannover Hbf,Hamburg Hbf,35909,7405,255162,9,ICE 20,209783.0,365.0,164.55057953509964,52.37726,9.74143,53.55271,10.007025
553,Hannover Hbf,Hamburg-Harburg,13976,29525,632004,7,ICE 25,23166.0,339.0,153.02473044043293,52.376762,9.741021,53.45627,9.992209
554,Hannover Hbf,Hamm(Westf)Hbf,9728,23625,516311,4,ICE 10,185544.0,267.0,176.0943704906313,52.377796,9.741915,51.678474,7.807276
555,Hannover Hbf,Herford,10793,675070,516311,6,ICE 10,513363.0,298.0,95.06052507972952,52.377796,9.741915,52.119453,8.663415
556,Hannover Hbf,Langenhagen Mitte,37140,161990,262643,0,ICE 26,373850.0,245.0,9.993733161840389,52.37715,9.741295,52.440155,9.725539
557,Hannover Hbf,Lüneburg,14059,352771,255162,7,ICE 25,618982.0,321.0,128.10334534798267,52.37726,9.74143,53.249535,10.419739
558,Hannover Hbf,Minden(Westf),9711,23485,516311,4,ICE 10,240061.0,298.0,63.89554285045661,52.377796,9.741915,52.29061,8.934859
559,Hannover Hbf,Nienburg(Weser),20748,4822,43645,8,IC 56,488107.0,372.0,55.05612853053916,52.377613,9.741834,52.64541,9.218015
560,Hannover Hbf,Osnabrück Hbf,40303,875590,98975,3,ICE 14,479312.0,304.0,132.56850953240718,52.37751,9.741717,52.272697,8.061522
561,Hannover Hbf,Peine,21188,830105,602659,11,IC 56,43801.0,219.0,35.77323611625,52.37746,9.74169,52.318916,10.231892
562,Hannover Hbf,Uelzen,2751,1035500,255162,11,ICE 12,558591.0,343.0,93.18794641736096,52.37726,9.74143,52.969612,10.553516
563,Hannover Hbf,Wolfsburg Hbf,10096,37945,286285,5,ICE 10,402576.0,259.0,75.31339999443566,52.37734,9.741547,52.429382,10.787698
564,Hannover Messe/Laatzen,Celle,37222,273218,403706,9,ICE 26,665982.0,281.0,45.05893519830196,52.3169,9.792863,52.620457,10.062468
565,Hannover Messe/Laatzen,Frankfurt(Main)Hbf,36508,563718,619095,3,ICE 16,16269.0,393.0,330.0552303247912,52.316975,9.792607,50.10636,8.662772
566,Hannover Messe/Laatzen,Göttingen,36576,78113,403706,4,ICE 16,378557.0,348.0,92.4273169612908,52.3169,9.792863,51.536865,9.92561
567,Hannover Messe/Laatzen,Hamburg-Harburg,14016,311406,403706,7,ICE 25,23166.0,337.0,160.72634295414798,52.3169,9.792863,53.45627,9.992209
568,Hannover Messe/Laatzen,Lüneburg,42395,561622,403706,7,ICE 22,618982.0,314.0,132.11521310590666,52.3169,9.792863,53.249535,10.419739
569,Hannover Messe/Laatzen,Nienburg(Weser),14282,486045,403706,7,ICE 25,488107.0,341.0,62.98471203994581,52.3169,9.792863,52.64541,9.218015
570,Hannover Messe/Laatzen,Wolfsburg Hbf,37840,105226,120109,5,ICE 24,402576.0,273.0,76.88328340219873,52.317005,9.792903,52.429382,10.787698
571,Hannover-Linden/Fischerhof,Braunschweig Hbf,20684,4360,417260,16,IC 56,406072.0,333.0,63.95725479970981,52.35257,9.723688,52.25223,10.540921
572,Hannover-Linden/Fischerhof,Nienburg(Weser),21144,824240,594545,6,IC 56,488107.0,291.0,56.8515990790883,52.352795,9.722646,52.64541,9.218015
573,Hannover-Linden/Fischerhof,Peine,20965,625100,417260,12,IC 56,43801.0,238.0,38.114107756768206,52.35257,9.723688,52.318916,10.231892
574,Hannover-Linden/Fischerhof,Wunstorf,20541,3827,594545,6,IC 56,181138.0,304.0,23.066643405801464,52.352795,9.722646,52.422367,9.451418
575,Hauptbahnhof,Bamberg,22003,38055,356159,10,ICE 18,590855.0,463.0,128.2831520007757,50.97211,11.037261,49.900597,10.899735
576,Hauptbahnhof,Coburg,33906,145684,356159,5,ICE 28,372584.0,274.0,87.40317125441169,50.97211,11.037261,50.26347,10.957452
577,Hauptbahnhof,Eisenach Hbf,23662,52301,356159,9,ICE 11,456782.0,657.0,56.85218093383769,50.97211,11.037261,50.975952,10.331229
578,Hauptbahnhof,Erlangen,33609,108855,356159,8,ICE 28,173118.0,318.0,166.97821214537288,50.97211,11.037261,49.596157,11.001488
579,Hauptbahnhof,Frankfurt(Main)Hbf,18481,51905,356159,3,ICE 15,16269.0,231.0,257.5699467388618,50.97211,11.037261,50.10636,8.662772
580,Hauptbahnhof,Frankfurt(Main)Süd,18466,44673,356159,3,ICE 15,273266.0,323.0,253.156350881795,50.97211,11.037261,50.099205,8.685283
581,Hauptbahnhof,Fürth(Bay)Hbf,43122,919187,356159,4,ICE 29,604708.0,288.0,182.8046733944133,50.97211,11.037261,49.469707,10.989988
582,Hauptbahnhof,Gotha,25011,71214,356159,4,ICE 50,671938.0,297.0,27.892754046573888,50.97211,11.037261,50.93907,10.712568
583,Hauptbahnhof,Halle(Saale)Hbf,18398,29414,356159,2,ICE 15,199582.0,377.0,92.30595541521924,50.97211,11.037261,51.47751,11.987085
584,Hauptbahnhof,Jena Paradies,39232,855391,356159,6,IC 17,157607.0,473.0,43.57285335301442,50.97211,11.037261,50.924854,11.587461
585,Hauptbahnhof,Leipzig Hbf,34255,5768,356159,4,ICE 28,233006.0,286.0,117.09015509939262,50.97211,11.037261,51.34547,12.382064
586,Hauptbahnhof,Nürnberg Hbf,43067,7048,356159,4,ICE 29,656568.0,238.0,190.5960876049579,50.97211,11.037261,49.44541,11.082291
587,Hauptbahnhof,Weimar,22906,106893,356159,11,ICE 11,174352.0,561.0,21.44509035458391,50.97211,11.037261,50.991486,11.326458
588,Hauptbahnhof,Würzburg Hbf,21717,1301557,356159,9,ICE 18,188918.0,386.0,200.0703786059983,50.97211,11.037261,49.801796,9.93578
589,Heide(Holst),Husum,32169,53087,175276,16,IC 26,221165.0,430.0,34.40674189178582,54.19306,9.101122,54.471985,9.05636
590,Heide(Holst),Itzehoe,12766,304367,225482,5,IC 29,628644.0,294.0,59.25194156903872,54.19317,9.100833,53.924114,9.510069
591,Heidelberg Hbf,Esslingen(Neckar),12488,425916,468518,4,EC 62,143801.0,307.0,99.26481260020977,49.403625,8.674905,48.738544,9.300522
592,Heidelberg Hbf,Frankfurt(Main)Hbf,4024,466841,374089,5,ICE 12,15887.0,377.0,87.15970194442404,49.40357,8.675442,50.106262,8.662941
593,Heidelberg Hbf,Karlsruhe Hbf,35664,43002,374089,6,ICE 20,481167.0,296.0,54.00720804138777,49.40357,8.675442,48.99385,8.401009
594,Heidelberg Hbf,Mannheim Hbf,24328,48134,80032,2,ICE 32,452421.0,117.0,16.981831372804574,49.40382,8.674716,49.47928,8.47008
595,Heidelberg Hbf,Stuttgart Hbf,6273,12442,468518,18,ICE 42,304723.0,627.0,91.42258642591476,49.403625,8.674905,48.784748,9.183217
596,Heidelberg Hbf,Vaihingen(Enz),30299,41213,468518,15,IC 55,85699.0,407.0,63.22219203762192,49.403625,8.674905,48.948555,8.956527
597,Heidelberg Hbf,Weinheim(Bergstr)Hbf,31933,281157,289162,3,IC 62,601305.0,124.0,22.654118875569687,49.40392,8.674851,49.553547,8.665607
598,Heidelberg Hbf,Wiesloch-Walldorf,30811,58231,468518,24,IC 55,408463.0,585.0,12.926412481798655,49.403625,8.674905,49.291042,8.664242
599,Helmstedt,Braunschweig Hbf,20539,3827,355869,4,IC 56,331031.0,304.0,36.08132021685108,52.22185,11.010084,52.25227,10.54085
600,Helmstedt,Magdeburg Hbf,20686,4360,242101,18,IC 56,105607.0,333.0,47.92876299540165,52.22181,11.010192,52.130512,11.626963
601,Herford,Bad Oeynhausen,31100,76081,157832,10,IC 55,237515.0,233.0,16.749317036235666,52.119358,8.663667,52.205257,8.795962
602,Herford,Bielefeld Hbf,9713,23485,513363,6,ICE 10,597977.0,298.0,13.667711175999152,52.119453,8.663415,52.02962,8.532917
603,Herford,Hannover Hbf,40231,368508,157832,15,ICE 14,286285.0,316.0,95.13207879810824,52.119358,8.663667,52.37734,9.741547
604,Hermsdorf-Klosterlausnitz,Gera Hbf,18926,200842,554454,21,IC 51,291914.0,336.0,20.01088377170668,50.903778,11.858626,50.883423,12.077092
605,Hermsdorf-Klosterlausnitz,Stadtroda,18929,260007,554454,1,IC 51,48121.0,158.0,4.656975402823589,50.903778,11.858626,50.868217,11.722792
606,Herrenberg,Böblingen,39596,245,414158,10,IC 87,502699.0,118.0,16.707881420635744,48.593933,8.862895,48.687847,9.004641
607,Herrenberg,Gäufelden,39778,5139,365900,1,IC 87,378218.0,98.0,0.6735176622597748,48.594112,8.862716,48.559734,8.85004
608,Herzogenrath,Aachen Hbf,40057,1031159,49087,18,ICE 14,175106.0,316.0,15.453692146497763,50.870914,6.094486,50.7678,6.091499
609,Herzogenrath,Geilenkirchen,40217,368508,49087,1,ICE 14,113417.0,316.0,11.485899422872969,50.870914,6.094486,50.96104,6.124518
610,Hildesheim Hbf,Braunschweig Hbf,5074,12227,52563,6,ICE 13,406072.0,259.0,42.83389633331053,52.160027,9.952812,52.25223,10.540921
611,Hildesheim Hbf,Göttingen,3546,20163,60578,5,ICE 12,378557.0,371.0,79.04665593576283,52.160275,9.952633,51.536865,9.92561
612,Homburg(Saar)Hbf,Kaiserslautern Hbf,36452,137410,60312,1,ICE 16,325339.0,375.0,35.261253438175515,49.327587,7.33657,49.435856,7.768559
613,Homburg(Saar)Hbf,Landstuhl,12515,531443,60312,1,EC 62,534284.0,341.0,19.861060348207904,49.327587,7.33657,49.416283,7.56624
614,Homburg(Saar)Hbf,Saarbrücken Hbf,12442,123321,369700,14,EC 62,382543.0,350.0,30.987642080682757,49.327637,7.336362,49.241337,6.991009
615,Horb,Bondorf(b Herrenberg),39593,245,434585,7,IC 87,8955.0,118.0,16.85888539846652,48.44146,8.688829,48.52329,8.827852
616,Horb,Böblingen,40023,95160,434585,3,IC 87,449942.0,110.0,41.2490923343926,48.44146,8.688829,48.688004,9.00438
617,Horb,Eutingen im Gäu,39658,325570,434585,0,IC 87,400850.0,149.0,9.65537993109728,48.44146,8.688829,48.479736,8.782361
618,Horb,Herrenberg,39766,453577,434585,8,IC 87,414158.0,114.0,25.53123993737979,48.44146,8.688829,48.593933,8.862895
619,Horb,Rottweil,39359,107015,132445,2,IC 87,472515.0,113.0,42.9066667680401,48.441597,8.688775,48.16566,8.639871
620,Horb,Sulz(Neckar),39574,2297,132445,2,IC 87,304272.0,141.0,14.335269764461495,48.441597,8.688775,48.367573,8.637867
621,Hude,Delmenhorst,20678,4360,423063,10,IC 56,15104.0,333.0,14.396704973270058,53.10924,8.460892,53.05279,8.629758
622,Hude,Oldenburg(Oldb)Hbf,20547,3827,1247,12,IC 56,106284.0,304.0,16.974893052139752,53.10929,8.460912,53.14432,8.222713
623,Husum,Heide(Holst),12765,304367,379849,4,IC 29,225482.0,294.0,34.40674189178582,54.471897,9.056276,54.19317,9.100833
624,Husum,Niebüll,32170,53087,221165,17,IC 26,487039.0,430.0,40.26112053603618,54.471985,9.05636,54.789566,8.834805
625,Ingolstadt Hbf,München Hbf,14716,7165,531671,9,ICE 25,480219.0,358.0,80.6848915636421,48.745197,11.436111,48.140812,11.557644
626,Ingolstadt Hbf,Nürnberg Hbf,17613,936369,448875,1,ICE 41,656568.0,293.0,89.68427839728467,48.744904,11.436021,49.44541,11.082291
627,"Ingolstadt, Hauptbahnhof",Fürth(Bay)Hbf,17592,919313,469223,1,ICE 41,406150.0,194.0,97.49033816944296,48.745193,11.435967,49.47032,10.990663
628,"Ingolstadt, Hauptbahnhof",Nürnberg Hbf,14555,630,469223,1,ICE 25,656568.0,354.0,89.68427839728467,48.745193,11.435967,49.44541,11.082291
629,"Ingolstadt, Hauptbahnhof",Treuchtlingen,17398,801745,469223,1,ICE 41,106474.0,219.0,55.61630155611835,48.745193,11.435967,48.961266,10.908159
630,"Ingolstadt, Hauptbahnhof",Würzburg Hbf,13841,244865,469223,1,ICE 25,51167.0,475.0,191.66554053620132,48.745193,11.435967,49.80213,9.935987
631,Itzehoe,Hamburg Dammtor,12767,304367,628644,6,IC 29,141544.0,294.0,68.46711065064328,53.924114,9.510069,53.560757,9.989569
632,Itzehoe,Hamburg Hbf,21561,787835,628644,4,IC 39,209783.0,401.0,68.96525941753711,53.924114,9.510069,53.55271,10.007025
633,Itzehoe,Heide(Holst),32168,53087,94904,15,IC 26,175276.0,430.0,59.25194156903871,53.924175,9.510147,54.19306,9.101122
634,Jena Paradies,Hauptbahnhof,39263,890666,157607,11,IC 17,356159.0,436.0,43.57285335301441,50.924854,11.587461,50.97211,11.037261
635,Jena Paradies,Jena-Göschwitz,34178,43883,157607,9,ICE 28,247296.0,290.0,5.208321583344065,50.924854,11.587461,50.88394,11.593537
636,Jena Paradies,Naumburg(Saale)Hbf,38923,11735,157607,11,IC 17,589735.0,426.0,45.47011003324513,50.924854,11.587461,51.16307,11.796984
637,Jena West,Jena-Göschwitz,18923,200842,522127,18,IC 51,247296.0,336.0,5.119020011172892,50.923286,11.577848,50.88394,11.593537
638,Jena West,Weimar,18932,260007,522127,4,IC 51,174352.0,158.0,22.22995571694496,50.923286,11.577848,50.991486,11.326458
639,Jena-Göschwitz,Jena Paradies,38922,11735,247296,10,IC 17,157607.0,426.0,5.208321583344064,50.88394,11.593537,50.924854,11.587461
640,Jena-Göschwitz,Jena West,18931,260007,247296,3,IC 51,522127.0,158.0,5.119020011172889,50.88394,11.593537,50.923286,11.577848
641,Jena-Göschwitz,Rudolstadt(Thür),22810,96675,247296,4,IC 61,584500.0,384.0,33.84343961115315,50.88394,11.593537,50.71793,11.338899
642,Jena-Göschwitz,Saalfeld(Saale),38800,101802,247296,8,IC 17,178004.0,479.0,45.62088148110326,50.88394,11.593537,50.650272,11.374583
643,Jena-Göschwitz,Stadtroda,18924,200842,247296,19,IC 51,48121.0,336.0,16.893843679261575,50.88394,11.593537,50.868217,11.722792
644,Kaiserslautern Hbf,Homburg(Saar)Hbf,12441,123321,422842,13,EC 62,369700.0,350.0,35.26125343817551,49.435905,7.768532,49.327637,7.336362
645,Kaiserslautern Hbf,Mannheim Hbf,28589,29782,325339,1,ICE 82,140917.0,116.0,63.772478029718926,49.435856,7.768559,49.479134,8.4699
646,Kaiserslautern Hbf,Neustadt(Weinstr)Hbf,36453,137410,325339,2,ICE 16,144930.0,375.0,33.54589103338376,49.435856,7.768559,49.34955,8.141557
647,Kaiserslautern Hbf,Saarbrücken Hbf,28585,263675,422842,2,ICE 82,454287.0,126.0,66.22207853100234,49.435905,7.768532,49.24148,6.991045
648,Karlsruhe Hbf,Baden-Baden,3690,2771,279825,12,ICE 12,55182.0,488.0,28.98046130497089,48.993732,8.401071,48.790478,8.190417
649,Karlsruhe Hbf,Bruchsal,17810,200659,592384,0,ICE 60,183214.0,151.0,22.22640133671136,48.99332,8.401422,49.125088,8.590113
650,Karlsruhe Hbf,Frankfurt(Main)Süd,28628,563532,482437,2,ICE 82,309054.0,333.0,131.23216659733856,48.993675,8.401116,50.099064,8.686108
651,Karlsruhe Hbf,Freiburg(Breisgau) Hbf,41156,34419,279825,17,EC 43,536141.0,518.0,131.55993312002133,48.993732,8.401071,47.997765,7.841295
652,Karlsruhe Hbf,Heidelberg Hbf,4023,466841,482437,4,ICE 12,374089.0,377.0,54.00720804138778,48.993675,8.401116,49.40357,8.675442
653,Karlsruhe Hbf,Karlsruhe-Durlach,17753,1200746,598768,0,ICE 60,419001.0,46.0,5.294895989401535,48.99321,8.401458,49.002167,8.462489
654,Karlsruhe Hbf,Mannheim Hbf,35904,7405,482437,4,ICE 20,140917.0,365.0,60.45973999858647,48.993675,8.401116,49.479134,8.4699
655,Karlsruhe Hbf,Offenburg,3303,14291,279825,2,ICE 12,265599.0,121.0,68.89196403665353,48.993732,8.401071,48.476475,7.946723
656,Karlsruhe Hbf,Pforzheim Hbf,22620,3418,348307,0,IC 61,235346.0,51.0,31.57729639315362,48.99302,8.401575,48.89414,8.702699
657,Karlsruhe Hbf,Ringsheim/Europa-Park,43562,412321,279825,2,ECE 85,65519.0,121.0,99.83791659224646,48.993732,8.401071,48.248688,7.772987
658,Karlsruhe Hbf,Stuttgart Hbf,17915,500791,598768,0,ICE 60,304723.0,36.0,78.8036901734342,48.99321,8.401458,48.784748,9.183217
659,Karlsruhe Hbf,Vaihingen(Enz),22409,1011579,348307,0,IC 61,85699.0,54.0,50.60154001918843,48.99302,8.401575,48.948555,8.956527
660,Karlsruhe-Durlach,Bruchsal,17754,1200746,419001,1,ICE 60,183214.0,46.0,16.95957156879012,49.002167,8.462489,49.125088,8.590113
661,Karlsruhe-Durlach,Karlsruhe Hbf,17805,173367,301718,2,ICE 60,592384.0,105.0,5.292756811200947,49.002155,8.462328,48.99332,8.401422
662,Kassel-Wilhelmshöhe,Bebra,18990,605324,622425,11,IC 51,613730.0,301.0,54.13146110836984,51.312435,9.448181,50.969566,9.797788
663,Kassel-Wilhelmshöhe,Eisenach Hbf,18918,200842,622425,13,IC 51,456782.0,336.0,99.1586752421838,51.312435,9.448181,50.975952,10.331229
664,Kassel-Wilhelmshöhe,Frankfurt(Main)Hbf,42142,13123,622425,4,ICE 22,69369.0,291.0,193.0860435582396,51.312435,9.448181,50.106148,8.663123
665,Kassel-Wilhelmshöhe,Frankfurt(Main)Süd,35340,176681,622425,4,ICE 20,273266.0,338.0,188.6724150334473,51.312435,9.448181,50.099205,8.685283
666,Kassel-Wilhelmshöhe,Fulda,14712,7165,622425,5,ICE 25,543565.0,358.0,89.73952212817392,51.312435,9.448181,50.555016,9.683904
667,Kassel-Wilhelmshöhe,Göttingen,14559,630,622425,5,ICE 25,418089.0,354.0,44.59809396899432,51.312435,9.448181,51.53674,9.925647
668,Kassel-Wilhelmshöhe,Mannheim Hbf,35432,24136,622425,4,ICE 20,24994.0,391.0,266.1036604028961,51.312435,9.448181,49.478836,8.469559
669,Kassel-Wilhelmshöhe,Offenbach(Main)Hbf,35019,1286687,622425,4,ICE 20,369738.0,335.0,183.30525032376616,51.312435,9.448181,50.09889,8.758983
670,Kassel-Wilhelmshöhe,Treysa,37533,769615,622425,9,ICE 26,605081.0,272.0,58.496493478204506,51.312435,9.448181,50.91066,9.185673
671,Kassel-Wilhelmshöhe,Wabern(Bz Kassel),36897,12659,622425,2,ICE 26,309741.0,181.0,30.17686099868317,51.312435,9.448181,51.103134,9.35804
672,Kassel-Wilhelmshöhe,Warburg(Westf),17387,79975,622425,3,ICE 41,154591.0,269.0,51.20284963291504,51.312435,9.448181,51.492992,9.164235
673,Kassel-Wilhelmshöhe,Würzburg Hbf,21420,220176,622425,8,ICE 89,542958.0,409.0,182.8499241778448,51.312435,9.448181,49.801895,9.935897
674,Keitum,Klanxbüll,12762,304367,161277,1,IC 29,410589.0,294.0,21.02954999610241,54.888973,8.368772,54.862103,8.676329
675,Keitum,Westerland(Sylt),21489,1141908,161277,16,IC 39,80535.0,383.0,4.602338703630549,54.888973,8.368772,54.90696,8.311079
676,Kiel Hbf,Neumünster,6255,12442,522537,0,ICE 42,262883.0,627.0,31.169507254633444,54.31442,10.131609,54.075653,9.979683
677,Klanxbüll,Niebüll,12763,304367,410589,2,IC 29,41061.0,294.0,14.87557609937148,54.862103,8.676329,54.789547,8.834721
678,Koblenz Hbf,Andernach,29799,163320,333033,0,IC 55,304313.0,448.0,17.832524462777002,50.35093,7.588345,50.434544,7.404839
679,Koblenz Hbf,Bingen(Rhein) Hbf,1854,99424,333033,8,ICE 39,303765.0,495.0,60.69144599097663,50.35093,7.588345,49.969147,7.882717
680,Koblenz Hbf,Bonn Hbf,1180,64738,333033,9,ICE 39,378779.0,612.0,59.04027869817604,50.35093,7.588345,50.731956,7.097364
681,Koblenz Hbf,Bonn-Beuel,31090,76081,333033,0,IC 55,536100.0,233.0,60.00583379190224,50.35093,7.588345,50.737896,7.12815
682,Koblenz Hbf,Düsseldorf Hbf,33304,76794,333033,9,ICE 91,657998.0,450.0,123.96013035499752,50.35093,7.588345,51.219505,6.794866
683,Koblenz Hbf,Köln Hbf,31808,98354,333033,5,IC 55,125814.0,248.0,92.3180973550846,50.35093,7.588345,50.94303,6.958729
684,Koblenz Hbf,Köln Messe/Deutz,160,114295,333033,3,ICE 39,497939.0,430.0,88.50905502826869,50.35093,7.588345,50.940674,6.975858
685,Koblenz Hbf,Köln Messe/Deutz Gl.11-12,32864,37809,333033,8,ICE 91,427014.0,499.0,88.78180886109591,50.35093,7.588345,50.9416,6.973954
686,Koblenz Hbf,Linz(Rhein),31124,76919,333033,4,IC 55,87045.0,287.0,36.94161036401047,50.35093,7.588345,50.569336,7.276032
687,Koblenz Hbf,Mainz Hbf,30296,41213,333033,12,IC 55,149884.0,407.0,91.72661012105412,50.35093,7.588345,50.001118,8.25872
688,Koblenz Hbf,Mainz-Kastel,30389,43999,333033,12,IC 55,589102.0,449.0,94.4332940090575,50.35093,7.588345,50.00722,8.282239
689,Koblenz Hbf,Solingen Hbf,32672,160041,333033,9,ICE 91,368958.0,444.0,111.78718841721212,50.35093,7.588345,51.160767,7.004187
690,Krefeld Hbf,Duisburg Hbf,40223,368508,616922,7,ICE 14,324446.0,316.0,20.317961213638565,51.32541,6.569613,51.429867,6.776882
691,Krefeld Hbf,Viersen,40051,1031159,100003,12,ICE 14,44097.0,316.0,15.224844994679511,51.325718,6.569885,51.254642,6.404907
692,Kreuztal,Lennestadt-Altenhundem,2358,142446,117187,2,IC 34,163368.0,99.0,22.352930839741795,50.95596,7.991961,51.103645,8.071282
693,Kreuztal,Siegen-Weidenau,2460,24344,512495,9,IC 34,507878.0,192.0,8.03938365075749,50.955246,7.992805,50.895786,8.02978
694,Kronach,Lichtenfels Bahnhof,22814,96675,340981,8,IC 61,325507.0,384.0,23.54026447893389,50.239956,11.320165,50.14574,11.05995
695,Kronach,Ludwigsstadt Bahnhof,22611,329890,622530,14,IC 61,293627.0,402.0,32.72813453025602,50.239956,11.320291,50.48694,11.383083
696,Köln Hbf,Aachen Hbf,40482,2109,125814,2,ICE 79,175106.0,102.0,76.61925241299433,50.94303,6.958729,50.7678,6.091499
697,Köln Hbf,Bonn Hbf,30806,58231,125814,19,IC 55,89956.0,585.0,33.27990045105643,50.94303,6.958729,50.731834,7.097284
698,Köln Hbf,Bonn-Beuel,29936,230360,125814,11,IC 55,345578.0,358.0,48.385452905121184,50.94303,6.958729,50.738205,7.127862
699,Köln Hbf,Dortmund Hbf,25967,1453265,440409,3,ICE 43,237500.0,285.0,95.90349733369104,50.9433,6.958485,51.5176,7.458793
700,Köln Hbf,Düren,620,204456,125814,8,ICE 39,104569.0,283.0,45.75642726737576,50.94303,6.958729,50.809517,6.482451
701,Köln Hbf,Düsseldorf Hbf,7078,28736,440409,7,ICE 42,580766.0,488.0,40.31353617641115,50.9433,6.958485,51.219433,6.795027
702,Köln Hbf,Frankfurt(M) Flughafen Fernbf,7261,39197,266079,11,ICE 42,298350.0,484.0,185.31991090340009,50.943333,6.958566,50.053165,8.570185
703,Köln Hbf,Frankfurt(Main)Hbf,40538,539013,125814,5,ICE 79,88255.0,223.0,196.53427594429604,50.94303,6.958729,50.10696,8.662195
704,Köln Hbf,Koblenz Hbf,1402,806639,440409,9,ICE 39,333033.0,396.0,90.30424760568664,50.9433,6.958485,50.35093,7.588345
705,Köln Hbf,Köln Messe/Deutz,7415,45917,125814,0,ICE 42,497939.0,267.0,18.258148534989804,50.94303,6.958729,50.940674,6.975858
706,Köln Hbf,Köln/Bonn Flughafen,27641,97757,440409,0,ICE 49,430315.0,89.0,15.400762219940212,50.9433,6.958485,50.879154,7.119158
707,Köln Hbf,Mainz Hbf,6843,160621,266079,10,ICE 42,149884.0,455.0,183.89384656210305,50.943333,6.958566,50.001118,8.25872
708,Köln Hbf,Mönchengladbach Hbf,2030,199582,440409,2,ICE 78,512781.0,131.0,52.513866547059294,50.9433,6.958485,51.196697,6.446014
709,Köln Hbf,Siegburg/Bonn,6268,12442,266079,13,ICE 42,475849.0,627.0,42.25453908847528,50.943333,6.958566,50.79388,7.202485
710,Köln Hbf,Solingen Hbf,33378,84293,125814,11,ICE 91,117724.0,434.0,44.64528431989679,50.94303,6.958729,51.161083,7.004119
711,Köln Hbf,Wiesbaden Hbf,25767,13486,266079,11,ICE 43,180381.0,381.0,181.7493582302319,50.943333,6.958566,50.069477,8.244631
712,Köln Hbf,Wuppertal Hbf,10091,37945,125814,0,ICE 10,485611.0,259.0,62.30349204095035,50.94303,6.958729,51.254597,7.150042
713,Köln Messe/Deutz,Bonn-Beuel,31481,903777,379374,11,IC 55,345578.0,353.0,30.12761118184833,50.94096,6.975957,50.738205,7.127862
714,Köln Messe/Deutz,Düsseldorf Hbf,5733,103499,497939,1,ICE 42,580766.0,259.0,38.79121251956459,50.940674,6.975858,51.219433,6.795027
715,Köln Messe/Deutz,Köln Hbf,27505,14325,47985,5,ICE 49,125814.0,82.0,18.25814853498981,50.940876,6.975921,50.94303,6.958729
716,Köln Messe/Deutz,Solingen Hbf,7416,45917,497939,1,ICE 42,368958.0,267.0,26.659860001154613,50.940674,6.975858,51.160767,7.004187
717,Köln Messe/Deutz Gl.11-12,Bonn-Beuel,41112,23495,314686,5,EC 43,345578.0,351.0,30.400365014675536,50.941566,6.973855,50.738205,7.127862
718,Köln Messe/Deutz Gl.11-12,Düsseldorf Hbf,16208,2305,427014,5,ICE 41,657998.0,229.0,38.82508194949344,50.9416,6.973954,51.219505,6.794866
719,Köln Messe/Deutz Gl.11-12,Frankfurt(M) Flughafen Fernbf,16114,18399,314686,5,ICE 41,298350.0,255.0,167.3348230129544,50.941566,6.973855,50.053165,8.570185
720,Köln Messe/Deutz Gl.11-12,Frankfurt(Main)Hbf,1778,952548,314686,7,ICE 39,582590.0,543.0,178.5545575608448,50.941566,6.973855,50.106102,8.663151
721,Köln Messe/Deutz Gl.11-12,Koblenz Hbf,1853,99424,314686,7,ICE 39,333033.0,495.0,88.78180886109593,50.941566,6.973855,50.35093,7.588345
722,Köln Messe/Deutz Gl.11-12,Köln/Bonn Flughafen,16181,21243,314686,5,ICE 41,430315.0,282.0,13.877984843653412,50.941566,6.973855,50.879154,7.119158
723,Köln Messe/Deutz Gl.11-12,Mainz Hbf,32903,3972,314686,4,ICE 91,149884.0,459.0,170.12179006734544,50.941566,6.973855,50.001118,8.25872
724,Köln Messe/Deutz Gl.11-12,Montabaur,16285,26908,314686,3,ICE 41,646191.0,315.0,87.9193390691479,50.941566,6.973855,50.444836,7.825333
725,Köln Messe/Deutz Gl.11-12,Siegburg/Bonn,12131,5903,314686,5,ICE 47,475849.0,309.0,48.27502691278104,50.941566,6.973855,50.79388,7.202485
726,Köln Messe/Deutz Gl.11-12,Solingen Hbf,33244,66517,314686,10,ICE 91,117724.0,439.0,26.661974171683177,50.941566,6.973855,51.161083,7.004119
727,Köln/Bonn Flughafen,Düsseldorf Hbf,16610,422204,567251,9,ICE 41,657998.0,295.0,49.054518666376666,50.879063,7.11958,51.219505,6.794866
728,Köln/Bonn Flughafen,Frankfurt(M) Flughafen Fernbf,16641,42586,430315,6,ICE 41,298350.0,264.0,159.3141402349333,50.879154,7.119158,50.053165,8.570185
729,Köln/Bonn Flughafen,Köln Hbf,40350,331374,567251,9,ICE 45,266079.0,175.0,31.86341136579514,50.879063,7.11958,50.943333,6.958566
730,Köln/Bonn Flughafen,Köln Messe/Deutz Gl.11-12,15731,13061,567251,9,ICE 41,314686.0,348.0,13.87798484365341,50.879063,7.11958,50.941566,6.973855
731,Köln/Bonn Flughafen,Mainz Hbf,27490,1402644,430315,1,ICE 49,149884.0,187.0,162.10110728932435,50.879154,7.119158,50.001118,8.25872
732,Köln/Bonn Flughafen,Siegburg/Bonn,16182,21243,430315,6,ICE 41,475849.0,282.0,58.98550503883572,50.879154,7.119158,50.79388,7.202485
733,Königs Wusterhausen,Berlin Ostkreuz,21196,842357,650399,3,IC 56,572319.0,423.0,27.31260608245007,52.29666,13.63135,52.50304,13.468615
734,Köthen,Halle(Saale)Hbf,20688,4360,16120,20,IC 56,199582.0,333.0,35.764364844004426,51.75193,11.989358,51.47751,11.987085
735,Köthen,Magdeburg Hbf,20537,3827,16120,2,IC 56,105607.0,304.0,51.79510609370292,51.75193,11.989358,52.130512,11.626963
736,Köthen,Magdeburg-Buckau,20343,227346,16120,2,IC 56,71107.0,293.0,49.68073644250492,51.75193,11.989358,52.109203,11.63004
737,Lahr(Schwarzw),Freiburg(Breisgau) Hbf,17827,225811,527527,10,ICE 60,555488.0,249.0,44.623580231298654,48.340435,7.834734,47.99773,7.841511
738,Lahr(Schwarzw),Offenburg,17855,296730,527527,5,ICE 60,265599.0,260.0,18.23625596578401,48.340435,7.834734,48.476475,7.946723
739,Landstuhl,Kaiserslautern Hbf,12516,531443,534284,2,EC 62,325339.0,341.0,15.402268907004428,49.416283,7.56624,49.435856,7.768559
740,Langenhagen Mitte,Celle,37141,161990,373850,1,ICE 26,665982.0,245.0,31.053826709870364,52.440155,9.725539,52.620457,10.062468
741,Langenhagen Mitte,Hannover Hbf,38175,236847,664207,8,ICE 24,317297.0,159.0,9.993733161840389,52.440178,9.725413,52.377087,9.741169
742,Leer(Ostfriesl),Augustfehn,20673,4360,133077,5,IC 56,158352.0,333.0,23.11485665504409,53.231438,7.46537,53.220844,7.75963
743,Leer(Ostfriesl),Emden Hbf,20552,3827,133077,17,IC 56,511270.0,304.0,27.1030086501672,53.231438,7.46537,53.369396,7.195112
744,Leer(Ostfriesl),Papenburg(Ems),27978,123814,30571,1,IC 35,150249.0,200.0,17.014321778561698,53.23138,7.465076,53.089706,7.386708
745,Leipzig Hbf,Berlin Südkreuz,42937,316797,233006,3,ICE 29,622546.0,244.0,164.01532506838387,51.34547,12.382064,52.475407,13.365754
746,Leipzig Hbf,Bitterfeld,20743,4822,233006,3,IC 56,304607.0,372.0,34.29419978906009,51.34547,12.382064,51.62286,12.31685
747,Leipzig Hbf,Dresden-Neustadt,44002,228385,233006,22,ICE 55,651231.0,663.0,115.60181500605675,51.34547,12.382064,51.066097,13.740235
748,Leipzig Hbf,Elsterwerda,25148,887031,233006,9,ICE 50,479164.0,358.0,89.32918413116055,51.34547,12.382064,51.46012,13.51666
749,Leipzig Hbf,Halle(Saale)Hbf,20535,3827,233006,0,IC 56,199582.0,304.0,34.14525858525084,51.34547,12.382064,51.47751,11.987085
750,Leipzig Hbf,Hauptbahnhof,23661,52301,233006,8,ICE 11,356159.0,657.0,117.09015509939265,51.34547,12.382064,50.97211,11.037261
751,Leipzig Hbf,Leipzig/Halle Flughafen,20418,29637,233006,0,IC 56,22365.0,304.0,18.94428023125955,51.34547,12.382064,51.42334,12.223426
752,Leipzig Hbf,Lutherstadt Wittenberg Hbf,34002,23124,233006,4,ICE 28,481287.0,261.0,72.46647226290094,51.34547,12.382064,51.86781,12.662285
753,Leipzig Hbf,Naumburg(Saale)Hbf,34176,43883,233006,7,ICE 28,589735.0,290.0,54.72317624057924,51.34547,12.382064,51.16307,11.796984
754,Leipzig Hbf,Riesa,30353,43799,233006,11,IC 55,424085.0,388.0,66.3693165510634,51.34547,12.382064,51.309734,13.288329
755,Leipzig Hbf,Weißenfels,22806,96675,233006,0,IC 61,560204.0,384.0,41.0245784928533,51.34547,12.382064,51.204617,11.970926
756,Leipzig/Halle Flughafen,Halle(Saale)Hbf,20419,29637,22365,1,IC 56,199582.0,304.0,17.922641497313066,51.42334,12.223426,51.47751,11.987085
757,Leipzig/Halle Flughafen,Leipzig Hbf,31222,79094,22365,3,IC 55,233006.0,149.0,18.944280231259555,51.42334,12.223426,51.34547,12.382064
758,Lennestadt-Altenhundem,Kreuztal,2459,24344,163368,8,IC 34,512495.0,192.0,22.48394900112889,51.103645,8.071282,50.955246,7.992805
759,Lennestadt-Altenhundem,Lennestadt-Grevenbrück,2359,142446,163368,3,IC 34,300069.0,99.0,7.146902425719443,51.103645,8.071282,51.141613,8.018227
760,Lennestadt-Grevenbrück,Finnentrop,2360,142446,300069,4,IC 34,586194.0,99.0,5.378917563027875,51.141613,8.018227,51.1729,7.96467
